unitid,instnm,addr,city,stabbr,zip,obereg,sector,control,hloffer,tribal,c18ipug,c15basic,carnegie,longitud,latitude,year,tuition2,fteug,tuition_revs,fed_grants,state_grants,local_grants,state_approps,local_approps,Bachelors,Masters,PhD,Cert> 1,Postbac,Associates,Cert<1,stfips,name,region,cenregnm,cendiv,cendivnm
100654,Alabama A & M University,4900 Meridian Street,Normal,AL,35762,5,1,1,9,2,16,18,16,-86.568502,34.783368,2019,8610,5163,41890801,22083622,987773,0,41017090,0,507,332,8,0,0,0,0,1,Alabama,3,South,6,East South Central
100663,University of Alabama at Birmingham,Administration Bldg Suite 1070,Birmingham,AL,35294-0110,5,1,1,9,2,17,15,15,-86.799345,33.505697,2019,8568,12185,253707923,370528637,8057617,2999958,273351124,0,2441,1974,549,47,180,0,0,1,Alabama,3,South,6,East South Central
100690,Amridge University,1200 Taylor Rd,Montgomery,AL,36117-3553,5,2,2,9,2,19,20,51,-86.17401,32.362609,2019,9000,302,NA,NA,NA,NA,NA,NA,40,79,10,0,0,25,0,1,Alabama,3,South,6,East South Central
100706,University of Alabama in Huntsville,301 Sparkman Dr,Huntsville,AL,35899,5,1,1,9,2,17,16,16,-86.640449,34.724557,2019,9730,7048,67638989,77317933,3919899,0,48352459,0,1207,562,50,0,58,0,8,1,Alabama,3,South,6,East South Central
100724,Alabama State University,915 S Jackson Street,Montgomery,AL,36104-0271,5,1,1,9,2,13,19,21,-86.295677,32.364317,2019,8328,3771,46514508,14359533,5541600,0,43254819,0,650,144,32,0,2,0,0,1,Alabama,3,South,6,East South Central
100751,The University of Alabama,739 University Blvd,Tuscaloosa,AL,35487-0100,5,1,1,9,2,17,16,15,-87.545978,33.211875,2019,10780,31777,516765773,41759198,31215296,991806,156742802,0,6683,1652,428,0,22,0,0,1,Alabama,3,South,6,East South Central
100760,Central Alabama Community College,1675 Cherokee Rd,Alexander City,AL,35010,5,4,1,3,2,2,1,40,-85.945266,32.92478,2019,3930,1165,2279815,1995551,2198733,125511,8423240,0,0,0,0,89,0,204,49,1,Alabama,3,South,6,East South Central
100812,Athens State University,300 N Beaty St,Athens,AL,35611,5,1,1,7,2,15,22,32,-86.964698,34.806793,2019,6180,2165,15584286,319269,2436509,0,12867151,0,759,20,0,0,0,0,0,1,Alabama,3,South,6,East South Central
100830,Auburn University at Montgomery,7440 East Drive,Montgomery,AL,36117-3596,5,1,1,9,2,16,18,21,-86.177544,32.36736,2019,7752,4528,35894562,1182518,5772892,39035,23318449,0,738,262,0,0,1,0,0,1,Alabama,3,South,6,East South Central
100858,Auburn University, ,Auburn,AL,36849,5,1,1,9,2,17,16,15,-85.488258,32.599378,2019,9816,24364,456313408,89511875,10813792,2523982,233252297,0,4722,1289,525,0,218,0,2,1,Alabama,3,South,6,East South Central
100937,Birmingham-Southern College,900 Arkadelphia Road,Birmingham,AL,35254,5,2,2,5,2,9,21,31,-86.850552,33.513774,2019,16993,1321,NA,NA,NA,NA,NA,NA,277,0,0,0,0,0,0,1,Alabama,3,South,6,East South Central
101028,Chattahoochee Valley Community College,2602 College Drive,Phenix City,AL,36869,5,4,1,3,2,2,1,40,-85.031485,32.42391,2019,3930,1305,2363636,181103,729690,121703,6438401,0,0,0,0,37,0,228,18,1,Alabama,3,South,6,East South Central
101116,South University-Montgomery,5355 Vaughn Rd,Montgomery,AL,36116,5,3,3,7,2,17,22,40,-86.216488,32.342684,2019,16920,327,NA,NA,NA,NA,NA,NA,53,29,1,0,0,44,0,1,Alabama,3,South,6,East South Central
101143,Enterprise State Community College,600 Plaza Drive,Enterprise,AL,36330-1300,5,4,1,3,2,3,8,40,-85.836956,31.297496,2019,3930,1331,3020675,1985566,2332786,27537,8591648,0,0,0,0,3,0,169,67,1,Alabama,3,South,6,East South Central
101161,Coastal Alabama Community College,1900 U S Highway 31 South,Bay Minette,AL,36507-2698,5,4,1,3,2,2,1,40,-87.778193,30.851343,2019,3930,5607,11647825,3645407,4943498,6902,26597829,1698876,0,0,0,74,0,498,134,1,Alabama,3,South,6,East South Central
101189,Faulkner University,5345 Atlanta Hwy,Montgomery,AL,36109-3390,5,2,2,9,2,19,20,32,-86.21641,32.384181,2019,20480,2167,NA,NA,NA,NA,NA,NA,533,190,87,0,0,19,0,1,Alabama,3,South,6,East South Central
101240,Gadsden State Community College,1001 George Wallace Dr,Gadsden,AL,35903,5,4,1,3,2,3,8,40,-85.991438,33.994001,2019,3930,3644,7223568,4602177,1932049,133822,22147646,762735,0,0,0,217,0,632,228,1,Alabama,3,South,6,East South Central
101277,New Beginning College of Cosmetology,421 Martling Road,Albertville,AL,35951,5,9,3,2,2,-2,-2,-2,-86.196931,34.27871,2019,NA,80,NA,NA,NA,NA,NA,NA,0,0,0,37,0,0,4,1,Alabama,3,South,6,East South Central
101286,George C Wallace Community College-Dothan,1141 Wallace Drive,Dothan,AL,36303-9234,5,4,1,3,2,3,7,40,-85.465836,31.315274,2019,3930,3304,7104097,2571375,948092,108750,15932841,96544,0,0,0,117,0,538,247,1,Alabama,3,South,6,East South Central
101295,George C Wallace State Community College-Hanceville,801 Main St NW,Hanceville,AL,35077-2000,5,4,1,3,2,3,7,40,-86.781935,34.072439,2019,3930,4191,11818046,1959520,1475297,11729,18048645,0,0,0,0,311,0,921,404,1,Alabama,3,South,6,East South Central
101301,George C Wallace State Community College-Selma,3000 Earl Goodwin Parkway,Selma,AL,36703-2808,5,4,1,3,2,2,9,40,-87.013294,32.445917,2019,3930,1294,1997565,1389304,3020264,4620,8080315,0,0,0,0,186,0,184,10,1,Alabama,3,South,6,East South Central
101365,Herzing University-Birmingham,280 West Valley Ave,Birmingham,AL,35209,5,2,2,8,2,5,23,40,-86.832465,33.468466,2019,13320,572,NA,NA,NA,NA,NA,NA,12,6,0,93,0,116,27,1,Alabama,3,South,6,East South Central
101435,Huntingdon College,1500 East Fairview Avenue,Montgomery,AL,36106-2148,5,2,2,5,2,15,22,31,-86.284366,32.351034,2019,25004,990,NA,NA,NA,NA,NA,NA,230,0,0,0,0,0,0,1,Alabama,3,South,6,East South Central
101453,Heritage Christian University,3625 Helton Dr,Florence,AL,35630-9977,5,2,2,7,2,20,24,51,-87.663051,34.856153,2019,10152,39,NA,NA,NA,NA,NA,NA,12,9,0,0,0,1,0,1,Alabama,3,South,6,East South Central
101462,J. F. Drake State Community and Technical College,3421 Meridian St N,Huntsville,AL,35811,5,4,1,3,2,3,9,40,-86.572885,34.771858,2019,3930,566,921011,2307323,403128,0,5161054,0,0,0,0,56,0,64,85,1,Alabama,3,South,6,East South Central
101471,J F Ingram State Technical College,5375 Ingram Rd,Deatsville,AL,36022,5,4,1,3,2,-2,8,40,-86.392369,32.582312,2019,4716,542,60804,2416068,2711482,0,8018249,0,0,0,0,100,0,0,436,1,Alabama,3,South,6,East South Central
101480,Jacksonville State University,700 Pelham Road North,Jacksonville,AL,36265,5,1,1,9,2,17,18,21,-85.765321,33.822938,2019,9720,6257,47662000,4919000,2965000,2180000,38898000,0,1304,311,8,0,50,0,0,1,Alabama,3,South,6,East South Central
101505,Jefferson State Community College,2601 Carson Rd,Birmingham,AL,35215-3098,5,4,1,3,2,2,5,40,-86.707233,33.652535,2019,3930,5727,17413587,2136980,3030968,152432,21740504,110000,0,0,0,236,0,846,264,1,Alabama,3,South,6,East South Central
101514,John C Calhoun State Community College,6250 U S Highway 31 N,Tanner,AL,35671,5,4,1,3,2,2,5,40,-86.949674,34.645844,2019,3930,6567,23429790,1688898,1919221,3736,25814684,0,0,0,0,112,0,1098,442,1,Alabama,3,South,6,East South Central
101541,Judson College,302 Bibb St,Marion,AL,36756,5,2,2,5,2,9,21,31,-87.315206,32.629253,2019,17240,261,NA,NA,NA,NA,NA,NA,50,0,0,0,0,17,0,1,Alabama,3,South,6,East South Central
101569,Lawson State Community College,3060 Wilson Rd SW,Birmingham,AL,35221-1717,5,4,1,3,2,3,5,40,-86.888844,33.450814,2019,3930,2568,3529445,8772731,1302102,137373,13666306,0,0,0,0,195,0,316,163,1,Alabama,3,South,6,East South Central
101587,University of West Alabama,Station One,Livingston,AL,35470,5,1,1,9,2,13,18,21,-88.186329,32.588132,2019,9100,2022,32293532,3259927,224985,0,16390241,0,308,685,0,0,116,46,0,1,Alabama,3,South,6,East South Central
101602,Lurleen B Wallace Community College,1000 Dannelly Blvd.,Andalusia,AL,36420-1418,5,4,1,3,2,3,7,40,-86.452262,31.322947,2019,3930,1340,2601113,1619372,1011872,40000,7403748,248468,0,0,0,50,0,210,166,1,Alabama,3,South,6,East South Central
101648,Marion Military Institute,1101 Washington St,Marion,AL,36756-3207,5,4,1,3,2,1,1,40,-87.322041,32.623734,2019,6000,426,953460,422582,0,0,7920936,0,0,0,0,0,0,109,0,1,Alabama,3,South,6,East South Central
101675,Miles College,5500 Myron Massey Blvd,Fairfield,AL,35064-2621,5,2,2,5,2,15,22,32,-86.908751,33.482442,2019,11164,1604,NA,NA,NA,NA,NA,NA,291,0,0,0,0,0,0,1,Alabama,3,South,6,East South Central
101693,University of Mobile,5735 College Parkway Drive,Mobile,AL,36613-2842,5,2,2,9,2,16,22,21,-88.128934,30.793247,2019,22250,1285,NA,NA,NA,NA,NA,NA,283,28,0,0,0,14,0,1,Alabama,3,South,6,East South Central
101709,University of Montevallo,Station 6001,Montevallo,AL,35115-6000,5,1,1,8,2,13,19,21,-86.865099,33.10625,2019,12090,2103,20415027,2204823,5428735,0,18703151,0,509,142,0,0,18,0,0,1,Alabama,3,South,6,East South Central
101736,Northwest-Shoals Community College,800 George Wallace Blvd,Muscle Shoals,AL,35661,5,4,1,3,2,3,7,40,-87.678089,34.739788,2019,3930,2237,6041184,4180507,1608401,736,12435240,0,0,0,0,153,0,351,266,1,Alabama,3,South,6,East South Central
101879,University of North Alabama,One Harrison Plaza,Florence,AL,35632-0001,5,1,1,8,2,16,18,21,-87.681361,34.806738,2019,9600,5421,46155412,1875979,3343065,68646,30071686,0,1030,367,0,0,67,0,0,1,Alabama,3,South,6,East South Central
101897,Northeast Alabama Community College,138  Highway 35,Rainsville,AL,35986,5,4,1,3,2,3,7,40,-85.911664,34.545471,2019,3930,2027,3914365,808925,2413252,0,8746284,0,0,0,0,71,0,547,215,1,Alabama,3,South,6,East South Central
101912,Oakwood University,7000 Adventist Blvd NW,Huntsville,AL,35896,5,2,2,7,2,13,22,32,-86.652705,34.756344,2019,18974,1483,NA,NA,NA,NA,NA,NA,306,5,0,0,37,4,0,1,Alabama,3,South,6,East South Central
101994,Reid State Technical College,100 and Hwy 83,Evergreen,AL,36401,5,4,1,3,2,3,8,40,-86.964797,31.460265,2019,3930,320,504904,435495,365804,0,4582381,0,0,0,0,85,0,18,17,1,Alabama,3,South,6,East South Central
102030,Bishop State Community College,351 North Broad Street,Mobile,AL,36603-5898,5,4,1,4,2,3,8,40,-88.056982,30.693972,2019,3870,2209,3914793,6265057,846467,0,13932139,621,0,0,0,131,0,275,207,1,Alabama,3,South,6,East South Central
102049,Samford University,800 Lakeshore Drive,Birmingham,AL,35229-2240,5,2,2,9,2,16,18,21,-86.791799,33.464128,2019,32000,3756,NA,NA,NA,NA,NA,NA,803,451,355,14,10,0,0,1,Alabama,3,South,6,East South Central
102058,Selma University,"1501 Lapsley St, Dinkins Hall",Selma,AL,36701,5,2,2,7,2,19,24,-2,-87.032392,32.420387,2019,7200,216,NA,NA,NA,NA,NA,NA,20,4,0,0,0,13,0,1,Alabama,3,South,6,East South Central
102067,Shelton State Community College,9500 Old Greensboro Rd,Tuscaloosa,AL,35405-8522,5,4,1,3,2,3,8,40,-87.56148,33.120531,2019,3930,3430,8911261,2495152,1882080,0,17898758,0,0,0,0,90,0,535,74,1,Alabama,3,South,6,East South Central
102076,Snead State Community College,102 Elder Street,Boaz,AL,35957-0734,5,4,1,3,2,1,1,40,-86.169897,34.201495,2019,3930,2012,5453952,789048,633988,1000,7837970,0,0,0,0,5,0,412,69,1,Alabama,3,South,6,East South Central
102094,University of South Alabama,307 N University Blvd,Mobile,AL,36688-0002,5,1,1,9,2,16,16,16,-88.178711,30.696033,2019,7896,9963,136222000,16411000,7790000,9892000,108268000,0,2072,1201,344,18,145,0,106,1,Alabama,3,South,6,East South Central
102234,Spring Hill College,4000 Dauphin St,Mobile,AL,36608-1791,5,2,2,8,2,13,21,21,-88.138199,30.694751,2019,38190,1302,NA,NA,NA,NA,NA,NA,269,26,0,0,14,0,1,1,Alabama,3,South,6,East South Central
102270,Stillman College,3601 Stillman Boulevard,Tuscaloosa,AL,35401,5,2,2,5,2,9,21,32,-87.585278,33.200006,2019,9548,892,NA,NA,NA,NA,NA,NA,72,0,0,0,0,0,0,1,Alabama,3,South,6,East South Central
102298,Talladega College,627 West Battle Street,Talladega,AL,35160,5,2,2,7,2,12,22,31,-86.112704,33.433472,2019,12130,1264,NA,NA,NA,NA,NA,NA,126,0,0,0,0,0,0,1,Alabama,3,South,6,East South Central
102313,H Councill Trenholm State Community College,1225 Air Base Blvd,Montgomery,AL,36108-3199,5,4,1,3,2,3,8,40,-86.343057,32.350109,2019,3930,1419,3169463,3037591,1096853,0,8875582,0,0,0,0,34,0,178,154,1,Alabama,3,South,6,East South Central
102368,Troy University,University Avenue,Troy,AL,36082-0001,5,1,1,9,2,13,18,21,-85.957094,31.800672,2019,7800,10760,127654039,7588139,13103034,591694,50145233,0,2219,1158,21,0,42,203,1,1,Alabama,3,South,6,East South Central
102377,Tuskegee University,"Kresge Center, 3rd Floor",Tuskegee,AL,36088-1920,5,2,2,9,2,16,20,21,-85.708492,32.4309,2019,19594,2832,NA,NA,NA,NA,NA,NA,423,86,67,0,0,0,0,1,Alabama,3,South,6,East South Central
102395,United States Sports Academy,One Academy Drive,Daphne,AL,36526-7055,5,2,2,9,2,20,32,59,-87.91163,30.639329,2019,17424,102,NA,NA,NA,NA,NA,NA,18,33,19,0,0,0,0,1,Alabama,3,South,6,East South Central
102429,Bevill State Community College,1411 Indiana Avenue,Jasper,AL,35501,5,4,1,3,2,3,8,40,-87.266406,33.836929,2019,4192,2716,7100526,4621839,2424807,50085,15959078,0,0,0,0,143,0,488,336,1,Alabama,3,South,6,East South Central
102553,University of Alaska Anchorage,3211 Providence Drive,Anchorage,AK,99508,8,1,1,9,2,16,18,21,-149.82619,61.190163,2019,6804,9310,78575051,18416422,7482551,2706059,120811570,880000,1201,246,2,57,89,761,58,2,Alaska,4,West,9,Pacific
102580,Alaska Bible College,248 E Elmwood Ave,Palmer,AK,99645,8,2,2,5,2,18,24,-2,-149.111972,61.598553,2019,9000,37,NA,NA,NA,NA,NA,NA,7,0,0,1,0,1,0,2,Alaska,4,West,9,Pacific
102614,University of Alaska Fairbanks,1731 South Chandalar Drive,Fairbanks,AK,99775,8,1,1,9,2,14,16,16,-147.823146,64.85756,2019,6962,4360,43192526,97784869,4326796,3719747,160199903,0,526,191,55,176,39,275,155,2,Alaska,4,West,9,Pacific
102632,University of Alaska Southeast,11066 Auke Lake Way,Juneau,AK,99801-8697,8,1,1,7,2,10,19,21,-134.638255,58.384846,2019,6888,1180,10852368,3891098,144485,54460,25154068,0,133,123,0,42,79,94,185,2,Alaska,4,West,9,Pacific
102669,Alaska Pacific University,4101 University Dr,Anchorage,AK,99508,8,2,2,9,2,13,20,21,-149.804168,61.190968,2019,20350,263,NA,NA,NA,NA,NA,NA,40,67,4,0,17,2,0,2,Alaska,4,West,9,Pacific
102711,Alaska Vocational Technical Center,PO Box 889,Seward,AK,99664-0889,8,7,1,2,2,-2,10,-2,-149.444487,60.110626,2019,NA,132,1252233,410,2881841,0,5009600,0,0,0,0,123,0,0,58,2,Alaska,4,West,9,Pacific
102845,Charter College,"17200 S.E. Mill Plain Boulevard, Suite 100",Vancouver,WA,98683-7575,8,3,3,5,2,5,23,40,-122.494766,45.617798,2019,18161,7889,NA,NA,NA,NA,NA,NA,40,5,0,1235,0,234,0,53,Washington,4,West,9,Pacific
103501,Alaska Career College,1415 E Tudor Road,Anchorage,AK,99507-1033,8,6,3,3,2,4,13,-2,-149.856954,61.181443,2019,NA,611,NA,NA,NA,NA,NA,NA,0,0,0,159,0,38,75,2,Alaska,4,West,9,Pacific
103741,Empire Beauty School-Tucson,3030 E Speedway Blvd,Tucson,AZ,85716,6,9,3,2,2,-2,-2,-2,-110.927187,32.235657,2019,NA,116,NA,NA,NA,NA,NA,NA,0,0,0,49,0,0,0,4,Arizona,4,West,8,Mountain
103893,Carrington College-Phoenix North,8503 N. 27th Ave.,Phoenix,AZ,85051-4063,6,6,3,3,2,4,10,-2,-112.116105,33.561689,2019,NA,1620,NA,NA,NA,NA,NA,NA,0,0,0,347,0,27,76,4,Arizona,4,West,8,Mountain
103945,CollegeAmerica-Flagstaff,399 Malpais,Flagstaff,AZ,86001,6,5,2,3,2,5,26,-2,-111.657673,35.194495,2019,14585,82,NA,NA,NA,NA,NA,NA,0,0,0,0,0,21,0,4,Arizona,4,West,8,Mountain
103954,Arizona Academy of Beauty-East,5631 E Speedway Blvd,Tucson,AZ,85712,6,9,3,2,2,-2,-2,-2,-110.872305,32.237253,2019,NA,63,NA,NA,NA,NA,NA,NA,0,0,0,16,0,0,18,4,Arizona,4,West,8,Mountain
103963,Platt College-Arizona Automotive Institute Arizona,6829 N 46th Ave,Glendale,AZ,85301-3579,6,9,3,2,2,-2,-2,40,-112.157344,33.537249,2019,NA,573,NA,NA,NA,NA,NA,NA,0,0,0,360,0,0,60,4,Arizona,4,West,8,Mountain
104090,Brookline College-Phoenix,"2445 W. Dunlap Ave., Ste. 100",Phoenix,AZ,85021,6,3,3,7,2,19,22,40,-112.112473,33.566102,2019,NA,861,NA,NA,NA,NA,NA,NA,136,33,0,0,0,85,197,4,Arizona,4,West,8,Mountain
104151,Arizona State University-Tempe,University Drive and Mill Avenue,Tempe,AZ,85287,6,1,1,9,2,14,15,15,-111.934383,33.417721,2019,10710,43564,1323268000,234408000,2566000,1152000,306778000,0,9291,2643,508,1,34,0,851,4,Arizona,4,West,8,Mountain
104160,Arizona Western College,2020 S. Avenue 8E,Yuma,AZ,85365-8834,6,4,1,3,2,1,5,40,-114.495968,32.689306,2019,2064,4893,4885692,0,0,0,4456351,33580106,0,0,0,659,0,818,436,4,Arizona,4,West,8,Mountain
104179,University of Arizona,1401 E University,Tucson,AZ,85721-0066,6,1,1,9,2,14,15,15,-110.950815,32.232672,2019,10990,33219,653519000,303204000,13592000,2424000,282534000,1018000,6913,1938,947,0,177,0,80,4,Arizona,4,West,8,Mountain
104188,Southwest University of Visual Arts-Tucson,2525 N Country Club Rd,Tucson,AZ,85716,6,2,2,7,2,16,30,40,-110.927265,32.252879,2019,22944,102,NA,NA,NA,NA,NA,NA,10,0,0,0,0,0,0,4,Arizona,4,West,8,Mountain
104346,Central Arizona College,8470 N Overfield Rd,Coolidge,AZ,85128-9030,6,4,1,3,2,1,6,40,-111.652501,32.957092,2019,2580,3066,5544035,0,0,0,1717900,60211680,0,0,0,355,0,527,344,4,Arizona,4,West,8,Mountain
104391,Charles of Italy Beauty College,"1987 McCulloch Blvd, Suite 205",Lake Havasu City,AZ,86403,6,9,3,2,2,-2,-2,-2,-114.332686,34.477485,2019,NA,45,NA,NA,NA,NA,NA,NA,0,0,0,20,0,0,10,4,Arizona,4,West,8,Mountain
104425,Cochise County Community College District,901 N Colombo Ave,Sierra Vista,AZ,85635-2317,6,4,1,3,2,1,9,40,-110.246946,31.564597,2019,2112,6355,6280110,0,243711,2500,10786200,21552268,0,0,0,314,0,1608,225,4,Arizona,4,West,8,Mountain
104434,Empire Beauty School-Flagstaff,1790 E Rte 66,Flagstaff,AZ,86004,6,9,3,2,2,-2,-2,-2,-111.625936,35.197151,2019,NA,45,NA,NA,NA,NA,NA,NA,0,0,0,17,0,0,0,4,Arizona,4,West,8,Mountain
104443,Empire Beauty School-Chandler,2978 N Alma School Rd #1-3,Chandler,AZ,85224,6,9,3,2,2,-2,-2,-2,-111.860423,33.347586,2019,NA,56,NA,NA,NA,NA,NA,NA,0,0,0,25,0,0,4,4,Arizona,4,West,8,Mountain
104568,Avalon School of Cosmetology-Mesa,2111 S Alma School Rd Ste 21,Mesa,AZ,85210,6,9,3,2,2,-2,-2,-2,-111.858305,33.376583,2019,NA,536,NA,NA,NA,NA,NA,NA,0,0,0,94,0,0,80,4,Arizona,4,West,8,Mountain
104577,Eastern Arizona College,615 N. Stadium Ave.,Thatcher,AZ,85552-0769,6,4,1,3,2,3,8,40,-109.76234,32.843664,2019,2700,3717,3328605,101919,415799,5020746,17925900,6703056,0,0,0,234,0,560,970,4,Arizona,4,West,8,Mountain
104586,Embry-Riddle Aeronautical University-Prescott,3700 Willow Creek Road,Prescott,AZ,86301-3720,6,2,2,7,2,16,22,-2,-112.449741,34.616766,2019,35424,2662,NA,NA,NA,NA,NA,NA,427,24,0,0,0,0,0,4,Arizona,4,West,8,Mountain
104708,Glendale Community College,6000 W Olive Ave,Glendale,AZ,85302,6,4,1,3,2,1,2,40,-112.190735,33.570226,2019,2040,10219,19105583,0,0,0,0,63432709,0,0,0,1636,0,1954,612,4,Arizona,4,West,8,Mountain
104717,Grand Canyon University,3300 W Camelback Rd,Phoenix,AZ,85017,6,3,3,9,2,19,17,21,-112.129929,33.513231,2019,16419,50730,NA,NA,NA,NA,NA,NA,10670,10305,363,0,338,0,0,4,Arizona,4,West,8,Mountain
105145,GateWay Community College,108 N. 40th Street,Phoenix,AZ,85034,6,4,1,4,2,2,9,40,-111.997077,33.449686,2019,2040,2777,8748957,0,0,0,0,34967082,0,0,0,289,0,584,459,4,Arizona,4,West,8,Mountain
105154,Mesa Community College,1833 W Southern Ave,Mesa,AZ,85202,6,4,1,3,2,1,2,40,-111.871255,33.390323,2019,2040,11552,26566604,0,0,0,0,70202673,0,0,0,1472,0,1915,521,4,Arizona,4,West,8,Mountain
105206,Mohave Community College,1971 Jagerson Ave,Kingman,AZ,86409-1238,6,4,1,3,2,2,6,40,-114.029838,35.270996,2019,1944,2361,5049361,0,0,0,1658000,23375115,0,0,0,235,0,365,51,4,Arizona,4,West,8,Mountain
105215,Universal Technical Institute of Arizona Inc-Motorcycle Mechanics Institute Division,2844 W Deer Valley Rd,Phoenix,AZ,85027,6,9,3,2,2,-2,-2,-2,-112.121336,33.684428,2019,NA,1356,NA,NA,NA,NA,NA,NA,0,0,0,566,0,0,0,4,Arizona,4,West,8,Mountain
105330,Northern Arizona University,"1900 S Knoles Dr, Babbitt Administrative Center, Room 200",Flagstaff,AZ,86011-4092,6,1,1,9,2,13,16,16,-111.653724,35.188449,2019,10018,26490,236789625,26653584,1835244,1329356,99716300,0,5937,1198,174,45,127,0,474,4,Arizona,4,West,8,Mountain
105349,Northland Pioneer College,2251 E. Navajo Blvd.,Holbrook,AZ,86025-0610,6,4,1,3,2,3,9,40,-110.142199,34.93031,2019,1900,1724,2328188,0,1030408,1485918,8690200,14879623,0,0,0,98,0,189,348,4,Arizona,4,West,8,Mountain
105367,Ottawa University-Phoenix,9414 North 25th Avenue,Phoenix,AZ,85021,6,2,2,8,2,19,19,-2,-112.113001,33.572173,2019,11976,331,NA,NA,NA,NA,NA,NA,134,118,0,0,0,0,0,4,Arizona,4,West,8,Mountain
105428,Phoenix College,1202 W Thomas Rd,Phoenix,AZ,85013,6,4,1,4,2,1,2,40,-112.088293,33.481361,2019,2040,6021,10925615,0,0,0,0,41108814,0,0,0,751,0,1012,285,4,Arizona,4,West,8,Mountain
105525,Pima Community College,4905C East  Broadway Blvd.,Tucson,AZ,85709-1275,6,4,1,3,2,1,2,40,-110.886659,32.222125,2019,2028,13017,28532331,627287,443327,744370,0,111324689,0,0,0,1749,0,2074,1273,4,Arizona,4,West,8,Mountain
105534,Pima Medical Institute-Tucson,"2121 N Craycroft Road, Bldg 1",Tucson,AZ,85712,6,3,3,5,2,5,26,-2,-110.878783,32.248067,2019,NA,2703,NA,NA,NA,NA,NA,NA,337,0,0,319,0,418,231,4,Arizona,4,West,8,Mountain
105543,Pima Medical Institute-Albuquerque,4400 Cutler Avenue NE,Albuquerque,NM,87110,6,6,3,3,2,4,10,-2,-106.59488,35.104855,2019,NA,934,NA,NA,NA,NA,NA,NA,0,0,0,196,0,155,158,35,New Mexico,4,West,8,Mountain
105589,Prescott College,220 Grove Ave,Prescott,AZ,86301,6,2,2,9,2,13,20,22,-112.477185,34.5452,2019,30888,394,NA,NA,NA,NA,NA,NA,79,80,8,0,19,0,0,4,Arizona,4,West,8,Mountain
105659,Refrigeration School Inc,4210 E Washington Street,Phoenix,AZ,85034-1816,6,6,3,3,2,4,11,40,-111.989357,33.448692,2019,NA,1107,NA,NA,NA,NA,NA,NA,0,0,0,316,0,61,148,4,Arizona,4,West,8,Mountain
105668,Rio Salado College,2323 W 14th St,Tempe,AZ,85281,6,4,1,3,2,3,9,40,-111.97417,33.413309,2019,2040,11537,32674637,0,0,0,0,63803924,0,0,0,891,0,566,2798,4,Arizona,4,West,8,Mountain
105677,Roberto-Venn School of Luthiery,1012 NW Grand Ave,Phoenix,AZ,85007,6,9,3,1,2,-2,-2,-2,-112.086161,33.45489,2019,NA,33,NA,NA,NA,NA,NA,NA,0,0,0,0,0,0,43,4,Arizona,4,West,8,Mountain
105747,Scottsdale Community College,9000 E Chaparral Rd,Scottsdale,AZ,85256,6,4,1,3,2,1,3,40,-111.885186,33.51135,2019,2040,4490,11875574,0,0,0,0,36599090,0,0,0,613,0,869,116,4,Arizona,4,West,8,Mountain
105792,South Mountain Community College,7050 S 24th St,Phoenix,AZ,85042,6,4,1,3,2,1,2,40,-112.032635,33.382406,2019,2040,2243,2971017,0,0,0,0,23311838,0,0,0,371,0,411,60,4,Arizona,4,West,8,Mountain
105899,Arizona Christian University,1 W. Firestorm Way,Glendale,AZ,85306-3216,6,2,2,5,2,15,22,51,-112.181776,33.622952,2019,26240,654,NA,NA,NA,NA,NA,NA,167,0,0,0,0,0,0,4,Arizona,4,West,8,Mountain
106041,Universal Technical Institute of Arizona Inc,10695 West Pierce Street,Avondale,AZ,85323,6,6,3,3,2,4,11,40,-112.288123,33.453005,2019,NA,2625,NA,NA,NA,NA,NA,NA,0,0,0,124,0,922,0,4,Arizona,4,West,8,Mountain
106111,Empire Beauty School-NW Phoenix,2727 W. Glendale Ave. #200,Phoenix,AZ,85051,6,9,3,2,2,-2,-2,-2,-112.118168,33.538093,2019,NA,82,NA,NA,NA,NA,NA,NA,0,0,0,33,0,0,2,4,Arizona,4,West,8,Mountain
106148,Yavapai College,1100 E Sheldon St,Prescott,AZ,86301,6,4,1,3,2,2,5,40,-112.453395,34.547495,2019,2492,3639,8428264,0,0,0,2081410,48584970,0,0,0,324,0,484,648,4,Arizona,4,West,8,Mountain
106245,University of Arkansas at Little Rock,2801 S University Ave,Little Rock,AR,72204,5,1,1,9,2,16,17,16,-92.339778,34.723254,2019,6495,6024,45434242,16782598,8624222,0,68134066,0,1340,489,134,0,124,303,11,5,Arkansas,3,South,7,West South Central
106263,University of Arkansas for Medical Sciences,4301 W Markham,Little Rock,AR,72205-7199,5,1,1,9,2,20,25,52,-92.320046,34.749048,2019,6600,565,48034000,77949000,30911000,0,33275000,0,262,252,345,6,39,56,0,5,Arkansas,3,South,7,West South Central
106306,Arkansas Baptist College,1600 Dr. Martin Luther King Jr. Drive,Little Rock,AR,72202-6068,5,2,2,5,2,5,23,31,-92.290555,34.734751,2019,8760,493,NA,NA,NA,NA,NA,NA,30,0,0,0,0,41,0,5,Arkansas,3,South,7,West South Central
106315,Arkansas Beauty School-Little Rock,8521 Geyer Springs Road Unit 30,Little Rock,AR,72209,5,9,3,2,2,-2,-2,-2,-92.343366,34.672171,2019,NA,118,NA,NA,NA,NA,NA,NA,0,0,0,21,0,0,16,5,Arkansas,3,South,7,West South Central
106324,Arkansas Beauty College,109 N Commerce St,Russellville,AR,72801,5,9,3,2,2,-2,-2,-2,-93.135369,35.27902,2019,NA,22,NA,NA,NA,NA,NA,NA,0,0,0,11,0,0,4,5,Arkansas,3,South,7,West South Central
106342,Lyon College,2300 Highland Road,Batesville,AR,72501,5,2,2,5,2,6,21,31,-91.625354,35.777619,2019,28550,603,NA,NA,NA,NA,NA,NA,146,0,0,0,0,0,0,5,Arkansas,3,South,7,West South Central
106351,Arkansas College of Barbering and Hair Design,200 E Washington Ave,North Little Rock,AR,72114,5,9,3,2,2,-2,-2,-2,-92.266429,34.753843,2019,NA,142,NA,NA,NA,NA,NA,NA,0,0,0,23,0,0,2,5,Arkansas,3,South,7,West South Central
106360,Arthur's Beauty College Inc-Fort Smith,2000 North B St,Fort Smith,AR,72901-3342,5,9,3,2,2,-2,-2,-2,-94.410967,35.379955,2019,NA,38,NA,NA,NA,NA,NA,NA,0,0,0,13,0,0,1,5,Arkansas,3,South,7,West South Central
106397,University of Arkansas,Administration Bldg 425,Fayetteville,AR,72701,5,1,1,9,2,17,15,15,-94.176981,36.070009,2019,7568,22087,240489120,65856171,32129524,4460212,207202611,0,4536,1112,338,0,144,0,3,5,Arkansas,3,South,7,West South Central
106412,University of Arkansas at Pine Bluff,1200 N University Mail Slot 4789,Pine Bluff,AR,71601,5,1,1,9,2,13,22,32,-92.018683,34.244031,2019,5130,2353,10221616,14289947,2733155,0,27454716,0,377,34,1,0,0,9,0,5,Arkansas,3,South,7,West South Central
106449,Arkansas State University-Beebe,1000 Iowa Street,Beebe,AR,72012-1000,5,4,1,3,2,2,6,40,-91.895351,35.074176,2019,2448,2532,5976936,1642017,1324955,0,14208961,1766891,0,0,0,408,0,511,359,5,Arkansas,3,South,7,West South Central
106458,Arkansas State University-Main Campus,2105 E. Aggie Road,Jonesboro,AR,72401,5,1,1,9,2,16,18,21,-90.679988,35.842388,2019,6540,8490,51784446,12223296,6882036,134208,66308232,0,1814,1687,51,0,579,581,6,5,Arkansas,3,South,7,West South Central
106467,Arkansas Tech University,Administration Bldg 200; 1509 N Boulder Ave,Russellville,AR,72801-2222,5,1,1,9,2,16,18,21,-93.13562,35.293237,2019,5568,8026,41506770,2814817,12864281,0,35937492,0,1224,287,14,150,23,913,427,5,Arkansas,3,South,7,West South Central
106485,University of Arkansas at Monticello,Highway 425 South,Monticello,AR,71656,5,1,1,7,2,13,20,32,-91.811153,33.590909,2019,4779,2334,12016302,1445877,2160676,0,18814756,0,342,123,0,104,37,297,236,5,Arkansas,3,South,7,West South Central
106494,Arthur's Beauty College Inc-Jacksonville,2600 John Harden Dr,Jacksonville,AR,72076,5,9,3,2,2,-2,-2,-2,-92.102579,34.891572,2019,NA,34,NA,NA,NA,NA,NA,NA,0,0,0,24,0,0,0,5,Arkansas,3,South,7,West South Central
106546,Baptist Health College Little Rock,11900 COLONEL GLENN RD STE 1000,Little Rock,AR,72210-2827,5,5,2,4,2,4,-2,-2,-92.40692,34.713115,2019,9292,640,NA,NA,NA,NA,NA,NA,0,0,0,175,0,229,0,5,Arkansas,3,South,7,West South Central
106625,Black River Technical College,1410 Hwy 304 East,Pocahontas,AR,72455,5,4,1,3,2,3,5,40,-90.951033,36.239793,2019,2304,1237,2812514,824949,1565842,0,8330503,0,0,0,0,144,0,233,211,5,Arkansas,3,South,7,West South Central
106704,University of Central Arkansas,201 Donaghey Ave,Conway,AR,72035-0001,5,1,1,9,2,16,18,21,-92.457672,35.077945,2019,6810,8690,56465733,2311162,2147065,0,58198968,0,1714,646,68,0,71,54,0,5,Arkansas,3,South,7,West South Central
106713,Central Baptist College,1501 College Avenue,Conway,AR,72034,5,2,2,5,2,15,22,51,-92.445021,35.083838,2019,15150,654,NA,NA,NA,NA,NA,NA,126,0,0,0,0,12,0,5,Arkansas,3,South,7,West South Central
106795,Cossatot Community College of the University of Arkansas,183 College Drive,De Queen,AR,71832,5,4,1,3,2,3,8,40,-94.3673,34.043389,2019,2610,921,2065255,401206,1260037,0,4729248,1339492,0,0,0,136,0,151,176,5,Arkansas,3,South,7,West South Central
106810,Crowley's Ridge College,100 College Dr,Paragould,AR,72450,5,2,2,5,2,15,23,40,-90.584395,36.064845,2019,12150,178,NA,NA,NA,NA,NA,NA,18,0,0,0,0,6,0,5,Arkansas,3,South,7,West South Central
106883,East Arkansas Community College,1700 Newcastle Rd,Forrest City,AR,72335-2204,5,4,1,3,2,2,3,40,-90.767726,35.041655,2019,2880,762,1690538,1615239,39383,0,10139405,317478,0,0,0,155,0,103,47,5,Arkansas,3,South,7,West South Central
106892,Eastern College of Health Vocations-Little Rock,200 South University Avenue,Little Rock,AR,72205,5,9,3,1,2,-2,-2,-2,-92.341891,34.75128,2019,NA,379,NA,NA,NA,NA,NA,NA,0,0,0,0,0,0,243,5,Arkansas,3,South,7,West South Central
106908,Imagine-Paul Mitchell Partner School,4201 E McCain Blvd,North Little Rock,AR,72117,5,9,3,2,2,-2,-2,-2,-92.222202,34.789913,2019,NA,478,NA,NA,NA,NA,NA,NA,0,0,0,196,0,0,6,5,Arkansas,3,South,7,West South Central
106980,National Park College,101 College Dr,Hot Springs,AR,71913,5,4,1,4,2,2,2,40,-93.119248,34.512687,2019,3000,1733,4005455,2217794,3013315,0,10943860,1475647,0,0,0,216,0,253,237,5,Arkansas,3,South,7,West South Central
106999,University of Arkansas Community College-Batesville,2005 White Drive,Batesville,AR,72503-3350,5,4,1,3,2,3,4,40,-91.615852,35.792923,2019,2100,928,1006930,737413,626373,0,4986926,1435527,0,0,0,55,0,185,192,5,Arkansas,3,South,7,West South Central
107044,Harding University,915 E. Market Ave.,Searcy,AR,72149-5615,5,2,2,9,2,16,18,22,-91.726143,35.247386,2019,20010,3988,NA,NA,NA,NA,NA,NA,921,321,87,0,0,0,0,5,Arkansas,3,South,7,West South Central
107071,Henderson State University,1100 Henderson Street,Arkadelphia,AR,71999-0001,5,1,1,8,2,13,19,21,-93.059703,34.128155,2019,6930,3073,10821256,1954411,714962,0,21264532,0,511,142,0,0,19,9,8,5,Arkansas,3,South,7,West South Central
107080,Hendrix College,1600 Washington Ave,Conway,AR,72032-3080,5,2,2,7,2,7,21,31,-92.443256,35.101565,2019,47250,1284,NA,NA,NA,NA,NA,NA,245,11,0,0,0,0,0,5,Arkansas,3,South,7,West South Central
107099,Hot Springs Beauty College,100 Cones Rd,Hot Springs,AR,71901,5,9,3,2,2,-2,-2,-2,-93.037277,34.496057,2019,NA,36,NA,NA,NA,NA,NA,NA,0,0,0,16,0,0,2,5,Arkansas,3,South,7,West South Central
107123,Jefferson Regional Medical Center School of Nursing,1600 West 40th Avenue,Pine Bluff,AR,71603,5,5,2,3,2,-2,-2,-2,-92.018045,34.187831,2019,NA,94,NA,NA,NA,NA,NA,NA,0,0,0,0,0,35,0,5,Arkansas,3,South,7,West South Central
107141,John Brown University,2000 W University St,Siloam Springs,AR,72761,5,2,2,8,2,19,19,32,-94.560283,36.189812,2019,26458,1540,NA,NA,NA,NA,NA,NA,376,193,0,0,0,3,0,5,Arkansas,3,South,7,West South Central
107220,Career Academy of Hair Design,346 E. Robinson Ave,Springdale,AR,72764-7128,5,9,3,2,2,-2,-2,-2,-94.12947,36.167605,2019,NA,231,NA,NA,NA,NA,NA,NA,0,0,0,90,0,0,52,5,Arkansas,3,South,7,West South Central
107293,Academy of Salon and Spa,311 S 16th St,Fort Smith,AR,72901,5,9,3,2,2,-2,-2,-2,-94.41616,35.38097,2019,NA,49,NA,NA,NA,NA,NA,NA,0,0,0,9,0,0,21,5,Arkansas,3,South,7,West South Central
107318,Arkansas State University Mid-South,2000 W.  Broadway,West Memphis,AR,72301-3829,5,4,1,3,2,3,9,40,-90.22285,35.145736,2019,2760,818,1685019,4369569,1506938,323289,7597656,2922410,0,0,0,5,0,133,237,5,Arkansas,3,South,7,West South Central
107327,Arkansas Northeastern College,2501 S Division,Blytheville,AR,72316-1109,5,4,1,3,2,3,8,40,-89.921005,35.898597,2019,2268,885,1059363,1856349,1870817,0,10097813,668311,0,0,0,82,0,138,162,5,Arkansas,3,South,7,West South Central
107442,New Tyler Barber College Inc,1221 E 7th St,North Little Rock,AR,72114-4973,5,9,3,2,2,-2,-2,-2,-92.254171,34.760085,2019,NA,42,NA,NA,NA,NA,NA,NA,0,0,0,30,0,0,1,5,Arkansas,3,South,7,West South Central
107460,North Arkansas College,1515 Pioneer Dr,Harrison,AR,72601-5508,5,4,1,3,2,2,4,40,-93.08844,36.219909,2019,2376,1304,1490230,118016,597,322817,9023664,863013,0,0,0,154,0,256,157,5,Arkansas,3,South,7,West South Central
107488,Northwest Technical Institute,709 S Old Missouri Rd,Springdale,AR,72764,5,7,1,2,2,-2,-2,-2,-94.115346,36.178032,2019,1890,311,769686,274329,0,0,3935055,0,0,0,0,110,0,0,41,5,Arkansas,3,South,7,West South Central
107512,Ouachita Baptist University,410 Ouachita St,Arkadelphia,AR,71998-0001,5,2,2,5,2,12,21,32,-93.052471,34.126093,2019,27280,1638,NA,NA,NA,NA,NA,NA,314,0,0,0,0,16,0,5,Arkansas,3,South,7,West South Central
107521,Arkansas State University Three Rivers,One College Circle,Malvern,AR,72104-0816,5,4,1,3,2,3,9,40,-92.821416,34.378745,2019,2448,717,1458141,1564977,1416967,461806,4669112,0,0,0,0,169,0,129,276,5,Arkansas,3,South,7,West South Central
107549,Ozarka College,218 College Dr,Melbourne,AR,72556-0010,5,4,1,3,2,2,5,40,-91.896355,36.053031,2019,2160,788,919035,726815,240210,0,4382329,467465,0,0,0,112,0,153,169,5,Arkansas,3,South,7,West South Central
107558,University of the Ozarks,415 N College Ave,Clarksville,AR,72830,5,2,2,5,2,12,22,32,-93.467221,35.476278,2019,24950,873,NA,NA,NA,NA,NA,NA,111,0,0,0,0,0,0,5,Arkansas,3,South,7,West South Central
107585,University of Arkansas Community College-Morrilton,1537 University Blvd.,Morrilton,AR,72110,5,4,1,3,2,2,4,40,-92.728507,35.172136,2019,2448,1414,3376222,951889,1741589,0,6297111,747084,0,0,0,439,0,381,75,5,Arkansas,3,South,7,West South Central
107600,Philander Smith College,900 W. Daisy Bates Drive,Little Rock,AR,72202-3799,5,2,2,5,2,12,21,32,-92.283015,34.737131,2019,11804,1015,NA,NA,NA,NA,NA,NA,89,0,0,0,0,0,0,5,Arkansas,3,South,7,West South Central
107619,Phillips Community College of the University of Arkansas,1000 Campus Drive,Helena,AR,72342-0785,5,4,1,3,2,2,6,40,-90.616884,34.546155,2019,2580,918,855375,2563993,1085224,400485,10392224,2036061,0,0,0,73,0,127,178,5,Arkansas,3,South,7,West South Central
107637,Southeast Arkansas College,1900 S Hazel Street,Pine Bluff,AR,71603,5,4,1,3,2,2,7,40,-92.025936,34.210309,2019,2880,825,2108529,851435,916656,0,7587169,0,0,0,0,156,0,174,99,5,Arkansas,3,South,7,West South Central
107655,Professional Cosmetology Education Center,460 North Washington,El Dorado,AR,71730-4009,5,9,3,2,2,-2,-2,-2,-92.664101,33.216032,2019,NA,31,NA,NA,NA,NA,NA,NA,0,0,0,14,0,0,0,5,Arkansas,3,South,7,West South Central
107664,University of Arkansas-Pulaski Technical College,3000 W Scenic Dr,North Little Rock,AR,72118-3347,5,4,1,3,2,1,4,40,-92.299184,34.782783,2019,4020,3705,13176172,2345883,1484737,0,17382628,0,0,0,0,328,0,723,348,5,Arkansas,3,South,7,West South Central
107725,University of Arkansas Hope-Texarkana,2500 S Main,Hope,AR,71801,5,4,1,3,2,3,8,40,-93.596762,33.641665,2019,2310,949,1693403,1193496,1393191,0,6426320,1476156,0,0,0,193,0,178,301,5,Arkansas,3,South,7,West South Central
107743,University of Arkansas Community College Rich Mountain,1100 College Dr,Mena,AR,71953,5,4,1,3,2,3,6,40,-94.219799,34.591449,2019,2328,522,550046,2062936,655128,0,3425317,434573,0,0,0,76,0,101,121,5,Arkansas,3,South,7,West South Central
107789,Paul Mitchell the School-Arkansas,4156 N Steele Blvd,Fayetteville,AR,72703,5,9,3,2,2,-2,-2,-2,-94.153892,36.126373,2019,NA,141,NA,NA,NA,NA,NA,NA,0,0,0,72,0,0,0,5,Arkansas,3,South,7,West South Central
107831,Searcy Beauty College,1004 S Main St,Searcy,AR,72143,5,9,3,2,2,-2,-2,-2,-91.735135,35.239148,2019,NA,94,NA,NA,NA,NA,NA,NA,0,0,0,16,0,0,0,5,Arkansas,3,South,7,West South Central
107840,Shorter College,604 Locust St,N Little Rock,AR,72114,5,5,2,3,2,1,2,-2,-92.261331,34.75933,2019,4200,209,NA,NA,NA,NA,NA,NA,0,0,0,0,0,30,0,5,Arkansas,3,South,7,West South Central
107877,Williams Baptist University,60 W Fulbright Avenue,Walnut Ridge,AR,72476,5,2,2,7,2,9,22,32,-90.940277,36.125676,2019,16668,443,NA,NA,NA,NA,NA,NA,92,0,0,0,0,4,0,5,Arkansas,3,South,7,West South Central
107974,South Arkansas Community College,300 S West Ave,El Dorado,AR,71731-7010,5,4,1,3,2,3,8,40,-92.666087,33.209446,2019,2328,1046,2886746,1731722,1503734,263250,7057112,342321,0,0,0,244,0,155,167,5,Arkansas,3,South,7,West South Central
107983,Southern Arkansas University Main Campus,100 E. University,Magnolia,AR,71753,5,1,1,7,2,16,19,21,-93.235922,33.291618,2019,6420,3268,18623776,2688494,551653,0,16953804,0,489,714,0,0,14,213,0,5,Arkansas,3,South,7,West South Central
107992,Southern Arkansas University Tech,6415 Spellman Road,Camden,AR,71701-1906,5,4,1,3,2,3,6,40,-92.721629,33.628367,2019,3240,981,2136402,392439,1606659,0,8079917,0,0,0,0,492,0,107,133,5,Arkansas,3,South,7,West South Central
108065,Velvatex College of Beauty Culture,1520 Martin Luther King Dr,Little Rock,AR,72202-5452,5,9,3,2,2,-2,-2,-2,-92.289597,34.735685,2019,NA,17,NA,NA,NA,NA,NA,NA,0,0,0,6,0,0,0,5,Arkansas,3,South,7,West South Central
108092,University of Arkansas-Fort Smith,5210 Grand Ave,Fort Smith,AR,72913-3649,5,1,1,7,2,15,22,40,-94.373729,35.384184,2019,4104,5218,17815463,1240740,3104198,0,24080995,6089618,829,2,0,149,0,272,280,5,Arkansas,3,South,7,West South Central
108232,Academy of Art University,79 New Montgomery,San Francisco,CA,94105,8,3,3,7,2,20,30,56,-122.400578,37.787943,2019,23112,5135,NA,NA,NA,NA,NA,NA,994,1204,0,0,0,203,0,6,California,4,West,9,Pacific
108348,The Academy of Radio and TV Broadcasting,16052 Beach Blvd St 263n,Huntington Beach,CA,92647,8,9,3,2,2,-2,-2,-2,-117.987762,33.729535,2019,NA,43,NA,NA,NA,NA,NA,NA,0,0,0,24,0,0,0,6,California,4,West,9,Pacific
108649,Avalon School of Cosmetology-Alameda,2318 Central Avenue,Alameda,CA,94501,8,9,3,2,2,-2,-2,-2,-122.243566,37.764203,2019,NA,182,NA,NA,NA,NA,NA,NA,0,0,0,26,0,0,50,6,California,4,West,9,Pacific
108667,College of Alameda,555 Ralph Appezzato Memorial Pky,Alameda,CA,94501,8,4,1,3,2,1,3,40,-122.279303,37.781017,2019,1104,3275,3281110,877790,6375206,467532,9166049,14363338,0,0,0,330,0,297,30,6,California,4,West,9,Pacific
108807,Allan Hancock College,800 South College Drive,Santa Maria,CA,93454-6399,8,4,1,4,2,2,2,40,-120.421144,34.943716,2019,1288,6562,4416527,2312539,14571268,0,38167922,28516574,0,0,0,549,0,908,519,6,California,4,West,9,Pacific
108852,American Academy of Dramatic Arts-Los Angeles,1336 North La Brea Avenue,Los Angeles,CA,90028,8,5,2,3,2,4,12,40,-118.343701,34.095378,2019,35440,296,NA,NA,NA,NA,NA,NA,0,0,0,16,0,119,0,6,California,4,West,9,Pacific
108977,American Beauty College,646 S. Sunset Ave,West Covina,CA,91790,8,9,3,2,2,-2,-2,-2,-117.936959,34.069367,2019,NA,136,NA,NA,NA,NA,NA,NA,0,0,0,64,0,0,4,6,California,4,West,9,Pacific
109040,American Career College-Los Angeles,4021 Rosewood Avenue,Los Angeles,CA,90004,8,6,3,3,2,4,10,-2,-118.292481,34.079323,2019,NA,1978,NA,NA,NA,NA,NA,NA,0,0,0,547,0,109,97,6,California,4,West,9,Pacific
109086,American Conservatory Theater,30 Grant Ave,San Francisco,CA,94108-5834,8,2,2,7,2,0,30,56,-122.40475,37.787343,2019,30235,15,NA,NA,NA,NA,NA,NA,0,11,0,1,0,0,67,6,California,4,West,9,Pacific
109208,American River College,4700 College Oak Dr,Sacramento,CA,95841-4286,8,4,1,4,2,2,1,40,-121.349672,38.65085,2019,0,20449,10963149,5285644,22258287,444585,72181792,30843797,0,0,0,1199,0,1977,1587,6,California,4,West,9,Pacific
109350,Antelope Valley College,3041 West  Ave K,Lancaster,CA,93536-5426,8,1,1,5,2,5,1,40,-118.186166,34.676207,2019,1104,9092,3972209,11343321,18472939,0,58804643,7373656,0,0,0,725,0,1175,337,6,California,4,West,9,Pacific
109651,Art Center College of Design,1700 Lida St,Pasadena,CA,91103,8,2,2,7,2,20,30,56,-118.185102,34.169031,2019,44272,2388,NA,NA,NA,NA,NA,NA,471,102,0,0,0,0,0,6,California,4,West,9,Pacific
109721,Associated Technical College-Los Angeles,1670 Wilshire Blvd,Los Angeles,CA,90017-1604,8,9,3,2,2,-2,-2,-2,-118.272364,34.056102,2019,NA,332,NA,NA,NA,NA,NA,NA,0,0,0,295,0,0,0,6,California,4,West,9,Pacific
109730,Associated Technical College-San Diego,707 Broadway-Ste 300,San Diego,CA,92101,8,9,3,1,2,-2,-2,-2,-117.157988,32.715375,2019,NA,99,NA,NA,NA,NA,NA,NA,0,0,0,0,0,0,103,6,California,4,West,9,Pacific
109785,Azusa Pacific University,901 E Alosta,Azusa,CA,91702-7000,8,2,2,9,2,13,17,21,-117.888375,34.130047,2019,39640,4930,NA,NA,NA,NA,NA,NA,1552,1193,118,0,57,0,12,6,California,4,West,9,Pacific
109819,Bakersfield College,1801 Panorama Dr,Bakersfield,CA,93305-1299,8,1,1,5,2,5,4,40,-118.973753,35.40911,2019,1288,14801,7120972,2250520,23767738,1702412,45791081,46257987,7,0,0,1076,0,1422,729,6,California,4,West,9,Pacific
109907,Barstow Community College,2700 Barstow Road,Barstow,CA,92311,8,4,1,3,2,1,3,40,-117.023412,34.870285,2019,1104,2056,860508,469207,4342729,229701,14623955,3910040,0,0,0,26,0,338,48,6,California,4,West,9,Pacific
109934,Bellus Academy-Chula Vista,"970 Broadway, Suite 110",Chula Vista,CA,91911,8,6,3,4,2,-2,-2,-2,-117.083738,32.614773,2019,NA,313,NA,NA,NA,NA,NA,NA,0,0,0,90,0,0,33,6,California,4,West,9,Pacific
110060,Bethesda University,730 N. Euclid St,Anaheim,CA,92801,8,2,2,9,2,19,24,51,-117.941323,33.842295,2019,7875,220,NA,NA,NA,NA,NA,NA,34,32,0,0,0,0,1,6,California,4,West,9,Pacific
110097,Biola University,13800 Biola Ave,La Mirada,CA,90639-0001,8,2,2,9,2,13,17,16,-118.014374,33.906203,2019,41976,3714,NA,NA,NA,NA,NA,NA,888,422,56,0,29,0,0,6,California,4,West,9,Pacific
110194,Brownson Technical School,1110 Technology Cir Ste D,Anaheim,CA,92805,8,9,3,2,2,-2,-2,-2,-117.905774,33.819032,2019,NA,229,NA,NA,NA,NA,NA,NA,0,0,0,11,0,0,0,6,California,4,West,9,Pacific
110219,Bryan University,350 W Washington St,Tempe,AZ,85281,6,3,3,7,2,5,14,-2,-111.944197,33.437779,2019,10086,1138,NA,NA,NA,NA,NA,NA,57,0,0,2,0,302,0,4,Arizona,4,West,8,Mountain
110246,Butte College,3536 Butte Campus Drive,Oroville,CA,95965-8399,8,4,1,4,2,3,4,40,-121.644831,39.649782,2019,1104,7327,7718097,1878243,36424321,736234,40372031,22742999,0,0,0,343,0,1181,764,6,California,4,West,9,Pacific
110316,California Institute of Integral Studies,1453 Mission Street,San Francisco,CA,94103,8,2,2,9,2,8,17,59,-122.416102,37.774924,2019,20500,80,NA,NA,NA,NA,NA,NA,51,226,97,0,0,0,0,6,California,4,West,9,Pacific
110334,Cabrillo College,6500 Soquel Dr,Aptos,CA,95003,8,4,1,3,2,1,4,40,-121.924797,36.989448,2019,1104,6785,9440240,0,0,0,28119299,43944770,0,0,0,85,0,1026,160,6,California,4,West,9,Pacific
110361,California Baptist University,8432 Magnolia Ave,Riverside,CA,92504-3297,8,2,2,9,2,16,18,21,-117.425619,33.929321,2019,32942,7526,NA,NA,NA,NA,NA,NA,1620,1003,3,0,0,0,0,6,California,4,West,9,Pacific
110370,California College of the Arts,1111 Eighth Street,San Francisco,CA,94107-2247,8,2,2,7,2,17,30,56,-122.399451,37.767485,2019,50592,1495,NA,NA,NA,NA,NA,NA,331,184,0,0,0,0,0,6,California,4,West,9,Pacific
110404,California Institute of Technology,1200 E California Blvd,Pasadena,CA,91125,8,2,2,9,2,11,15,15,-118.125878,34.137349,2019,52506,922,NA,NA,NA,NA,NA,NA,228,161,191,0,0,0,0,6,California,4,West,9,Pacific
110413,California Lutheran University,60 W Olsen Rd,Thousand Oaks,CA,91360-2787,8,2,2,9,2,13,18,21,-118.878924,34.224566,2019,43900,3085,NA,NA,NA,NA,NA,NA,738,460,20,0,12,0,0,6,California,4,West,9,Pacific
110422,California Polytechnic State University-San Luis Obispo,1 Grand Ave.,San Luis Obispo,CA,93407,8,1,1,7,2,16,18,21,-120.65731100000001,35.299513,2019,5742,20219,193404282,0,0,0,221304834,0,4808,630,0,0,4,0,0,6,California,4,West,9,Pacific
110468,Alliant International University-San Diego,10455 Pomerado Road,San Diego,CA,92131,8,3,3,9,2,17,17,59,-117.094398,32.897056,2019,15347,503,NA,NA,NA,NA,NA,NA,55,529,362,37,41,0,291,6,California,4,West,9,Pacific
110486,California State University-Bakersfield,9001 Stockdale Hwy,Bakersfield,CA,93311-1099,8,1,1,9,2,13,18,21,-119.104711,35.350005,2019,5742,8543,30463356,5281631,348775,45897,100838123,0,1801,360,0,0,0,0,0,6,California,4,West,9,Pacific
110495,California State University-Stanislaus,One University Circle,Turlock,CA,95382-0299,8,1,1,9,2,13,18,21,-120.852511,37.52577,2019,5742,8363,43194161,2697173,2089945,1035173,97798457,0,2177,345,14,0,2,0,0,6,California,4,West,9,Pacific
110510,California State University-San Bernardino,5500 University Parkway,San Bernardino,CA,92407-2393,8,1,1,9,2,13,18,21,-117.323801,34.182622,2019,5742,16286,64605982,0,0,0,168256106,0,4136,756,11,0,13,0,0,6,California,4,West,9,Pacific
110529,California State Polytechnic University-Pomona,3801 West Temple Avenue,Pomona,CA,91768,8,1,1,9,2,16,18,21,-117.821476,34.057912,2019,5742,22898,110695965,0,0,0,204922322,0,5792,466,18,0,0,0,0,6,California,4,West,9,Pacific
110538,California State University-Chico,First and Normal Sts,Chico,CA,95929-0150,8,1,1,7,2,16,18,21,-121.844859,39.729712,2019,5742,15869,70797659,0,2947,0,166071531,0,4130,325,0,0,0,0,0,6,California,4,West,9,Pacific
110547,California State University-Dominguez Hills,1000 E Victoria St,Carson,CA,90747-0005,8,1,1,8,2,13,18,21,-118.255917,33.864766,2019,5742,11682,49734494,0,0,0,123710182,0,3236,805,0,0,11,0,0,6,California,4,West,9,Pacific
110556,California State University-Fresno,5241 N Maple Ave,Fresno,CA,93740,8,1,1,9,2,14,17,21,-119.744569,36.811154,2019,5742,19991,82346032,122139,518259,0,220168764,0,4720,854,74,0,28,0,0,6,California,4,West,9,Pacific
110565,California State University-Fullerton,800 N State College Blvd,Fullerton,CA,92831-3599,8,1,1,9,2,14,17,21,-117.885446,33.881506,2019,5742,31314,179857542,192769,0,0,278594606,0,9038,1879,57,0,28,0,0,6,California,4,West,9,Pacific
110574,California State University-East Bay,25800 Carlos Bee Blvd,Hayward,CA,94542,8,1,1,9,2,13,18,21,-122.054135,37.657694,2019,5742,12069,86565369,0,0,52542,144739805,0,3961,1267,23,0,25,0,0,6,California,4,West,9,Pacific
110583,California State University-Long Beach,1250 Bellflower Blvd,Long Beach,CA,90840-0115,8,1,1,9,2,14,18,21,-118.11204,33.782818,2019,5742,28456,149428241,0,0,0,294116868,0,8615,1838,59,0,288,0,0,6,California,4,West,9,Pacific
110592,California State University-Los Angeles,5151 State University Dr,Los Angeles,CA,90032-8506,8,1,1,9,2,14,18,21,-118.168965,34.066927,2019,5742,21593,86288673,0,0,0,207026024,0,5246,1183,12,0,84,0,0,6,California,4,West,9,Pacific
110608,California State University-Northridge,18111 Nordhoff St,Northridge,CA,91330,8,1,1,9,2,14,18,21,-118.529319,34.240126,2019,5742,29519,158688034,0,0,0,297843844,0,8806,1690,42,0,83,0,0,6,California,4,West,9,Pacific
110617,California State University-Sacramento,6000 J St,Sacramento,CA,95819-2694,8,1,1,9,2,14,18,21,-121.423549,38.559415,2019,5742,25204,131629085,844218,5757308,295209,234422335,0,6948,793,38,0,4,0,0,6,California,4,West,9,Pacific
110635,University of California-Berkeley,200 California Hall,Berkeley,CA,94720,8,1,1,9,2,11,15,15,-122.260463,37.871918,2019,11442,31593,933909000,367780000,93563000,13368000,390931000,0,7982,3001,1242,0,109,0,0,6,California,4,West,9,Pacific
110644,University of California-Davis,One Shields Avenue,Davis,CA,95616-8678,8,1,1,9,2,11,15,15,-121.749567,38.539667,2019,11442,30073,674801000,402968000,145391000,14412000,397508000,0,7932,1151,988,0,23,0,0,6,California,4,West,9,Pacific
110653,University of California-Irvine,501 Aldrich Hall,Irvine,CA,92697,8,1,1,9,2,14,15,15,-117.841248,33.648434,2019,11442,31058,590428000,210962000,34857000,2964000,299228000,0,6803,1406,587,0,131,0,0,6,California,4,West,9,Pacific
110662,University of California-Los Angeles,405 Hilgard Ave,Los Angeles,CA,90095-1405,8,1,1,9,2,8,15,15,-118.443901,34.068892,2019,11442,32468,844592000,601936000,80420000,61539000,448284000,0,8444,3321,1321,0,0,0,0,6,California,4,West,9,Pacific
110671,University of California-Riverside,900 University Ave,Riverside,CA,92521,8,1,1,9,2,11,15,15,-117.32741,33.97246,2019,11442,20414,291566000,85184000,10890000,2276000,265643000,0,4685,637,354,0,0,0,0,6,California,4,West,9,Pacific
110680,University of California-San Diego,9500 Gilman Dr,La Jolla,CA,92093,8,1,1,9,2,11,15,15,-117.235866,32.877749,2019,11442,30934,652587000,672874000,37631000,16977000,326994000,0,7356,1859,695,0,0,0,0,6,California,4,West,9,Pacific
110705,University of California-Santa Barbara,5221 Cheadle Hall,Santa Barbara,CA,93106,8,1,1,9,2,8,15,15,-119.846426,34.416297,2019,11442,23320,394182000,118452000,12663000,2367000,222258000,0,5569,507,361,0,78,0,0,6,California,4,West,9,Pacific
110714,University of California-Santa Cruz,1156 High St,Santa Cruz,CA,95064-1011,8,1,1,9,2,8,15,15,-122.058801,36.995584,2019,11442,18079,287616000,71298000,7324000,656000,202120000,0,4188,483,159,0,9,0,0,6,California,4,West,9,Pacific
110778,Sofia University,1069 East Meadow Cr,Palo Alto,CA,94303,8,3,3,9,2,8,26,59,-122.10866,37.430325,2019,NA,4,NA,NA,NA,NA,NA,NA,2,41,13,0,0,0,0,6,California,4,West,9,Pacific
110875,California Beauty School,1115 15th St,Modesto,CA,95354,8,9,3,2,2,-2,-2,-2,-120.99689,37.645217,2019,NA,54,NA,NA,NA,NA,NA,NA,0,0,0,19,0,0,35,6,California,4,West,9,Pacific
110918,California Christian College,5364 E. Belmont Avenue,Fresno,CA,93727,8,2,2,5,2,18,24,51,-119.711123,36.749366,2019,9120,10,NA,NA,NA,NA,NA,NA,1,0,0,0,0,1,0,6,California,4,West,9,Pacific
111045,California Graduate School of Theology,"12761 Euclid St.,",Garden Grove,CA,92840-1340,8,2,2,9,2,-2,-2,-2,-117.936119,33.774619,2019,7500,7,NA,NA,NA,NA,NA,NA,NA,NA,NA,NA,NA,NA,NA,6,California,4,West,9,Pacific
111054,California Hair Design Academy,"8011 University Avenue, Suite A-2",La Mesa,CA,91942-5055,8,9,3,2,2,-2,-2,-2,-117.024261,32.765221,2019,NA,209,NA,NA,NA,NA,NA,NA,0,0,0,101,0,0,40,6,California,4,West,9,Pacific
111081,California Institute of the Arts,24700 W McBean Pky,Valencia,CA,91355-2397,8,2,2,9,2,8,30,56,-118.566837,34.39327,2019,50850,983,NA,NA,NA,NA,NA,NA,187,195,2,0,0,0,0,6,California,4,West,9,Pacific
111188,California State University Maritime Academy,200 Maritime Academy Dr,Vallejo,CA,94590-8181,8,1,1,7,2,19,22,59,-122.231551,38.069061,2019,5742,1226,9844499,1444899,102793,0,42228513,0,218,18,0,0,0,0,0,6,California,4,West,9,Pacific
111434,Canada College,4200 Farm Hill Blvd.,Redwood City,CA,94061-1099,8,4,1,4,2,1,6,40,-122.265398,37.44877,2019,1288,2971,4411873,0,0,0,1558342,37520080,0,0,0,194,0,382,149,6,California,4,West,9,Pacific
111461,College of the Canyons,26455 Rockwell Canyon Rd,Santa Clarita,CA,91355-1899,8,4,1,3,2,1,3,40,-118.568698,34.403993,2019,1104,12970,13613633,2553494,22388669,2588473,66022043,26299236,0,0,0,992,0,1919,620,6,California,4,West,9,Pacific
111513,Career Academy of Beauty,12471 Valley View,Garden Grove,CA,92845,8,9,3,2,2,-2,-2,-2,-118.031697,33.781018,2019,NA,182,NA,NA,NA,NA,NA,NA,0,0,0,38,0,0,99,6,California,4,West,9,Pacific
111638,Casa Loma College-Van Nuys,6725 Kester Ave,Van Nuys,CA,91405,8,5,2,3,2,4,10,-2,-118.457781,34.192829,2019,NA,450,NA,NA,NA,NA,NA,NA,0,0,0,11,0,99,0,6,California,4,West,9,Pacific
111708,CET-San Diego,4153 Market Street,San Diego,CA,92102,8,8,2,2,2,-2,-2,-2,-117.105328,32.711302,2019,NA,166,NA,NA,NA,NA,NA,NA,0,0,0,161,0,0,0,6,California,4,West,9,Pacific
111717,CET-San Jose,701 Vine St,San Jose,CA,95110,8,8,2,2,2,-2,-2,-2,-121.88698,37.322723,2019,NA,251,NA,NA,NA,NA,NA,NA,0,0,0,159,0,0,33,6,California,4,West,9,Pacific
111726,CET-El Centro,294 S 3rd St,El Centro,CA,92243,8,8,2,2,2,-2,-2,-2,-115.549079,32.790908,2019,NA,250,NA,NA,NA,NA,NA,NA,0,0,0,138,0,0,68,6,California,4,West,9,Pacific
111744,CET-Colton,1099 N. Pepper Ave,Colton,CA,92324,8,8,2,2,2,-2,-2,-2,-117.353488,34.077381,2019,NA,154,NA,NA,NA,NA,NA,NA,0,0,0,106,0,0,22,6,California,4,West,9,Pacific
111762,CET-Watsonville,10 Blanca Lane,Watsonville,CA,95076,8,8,2,2,2,-2,-2,-2,-121.767991,36.931833,2019,NA,84,NA,NA,NA,NA,NA,NA,0,0,0,29,0,0,45,6,California,4,West,9,Pacific
111799,CET-Salinas,24 East Alvin Drive,Salinas,CA,93906,8,8,2,2,2,-2,-2,-2,-121.65236,36.707333,2019,NA,175,NA,NA,NA,NA,NA,NA,0,0,0,74,0,0,11,6,California,4,West,9,Pacific
111887,Cerritos College,11110 Alondra Blvd,Norwalk,CA,90650-6298,8,4,1,4,2,1,4,40,-118.097337,33.886874,2019,1288,13577,9977780,2496508,20690339,594803,59412053,30632257,0,0,0,239,0,1718,1624,6,California,4,West,9,Pacific
111896,Cerro Coso Community College,3000 College Heights Blvd,Ridgecrest,CA,93555-9571,8,4,1,3,2,2,6,40,-117.66767,35.567525,2019,1288,2825,1607500,258357,4807567,237199,8653433,8776598,0,0,0,93,0,232,84,6,California,4,West,9,Pacific
111920,Chabot College,25555 Hesperian Blvd,Hayward,CA,94545,8,4,1,4,2,1,1,40,-122.105636,37.642458,2019,1104,8031,9655528,5266340,38593624,4587264,30280419,28953297,0,0,0,211,0,940,269,6,California,4,West,9,Pacific
111939,Chaffey College,5885 Haven Ave,Rancho Cucamonga,CA,91737-3002,8,4,1,4,2,1,1,40,-117.573932,34.147663,2019,1104,16916,11402107,7365742,35220309,237743,41182717,49445840,0,0,0,1109,0,1844,389,6,California,4,West,9,Pacific
111948,Chapman University,One University Dr.,Orange,CA,92866,8,2,2,9,2,16,18,21,-117.852518,33.79302,2019,54540,7300,NA,NA,NA,NA,NA,NA,1527,548,305,0,0,0,4,6,California,4,West,9,Pacific
111966,Charles R Drew University of Medicine and Science,1731 E 120th St,Los Angeles,CA,90059,8,2,2,8,2,5,26,53,-118.242791,33.925658,2019,12824,169,NA,NA,NA,NA,NA,NA,11,212,0,0,24,18,0,6,California,4,West,9,Pacific
112075,Concordia University-Irvine,1530 Concordia West,Irvine,CA,92612-3203,8,2,2,9,2,13,18,22,-117.812305,33.653665,2019,35990,1842,NA,NA,NA,NA,NA,NA,480,1139,19,0,16,0,0,6,California,4,West,9,Pacific
112084,San Diego Christian College,200 Riverview Parkway,Santee,CA,92071,8,2,2,7,2,15,22,31,-116.978112,32.842404,2019,23030,481,NA,NA,NA,NA,NA,NA,146,4,0,0,17,3,0,6,California,4,West,9,Pacific
112172,Citrus College,1000 W Foothill Blvd,Glendora,CA,91741-1899,8,4,1,4,2,1,1,40,-117.885266,34.135487,2019,1104,9851,11802762,1812680,10865203,0,58525425,16049002,0,0,0,1468,0,1534,459,6,California,4,West,9,Pacific
112181,Citrus Heights Beauty College,7518 Baird Way,Citrus Heights,CA,95610-1410,8,9,3,2,2,-2,-2,-2,-121.289529,38.712951,2019,NA,125,NA,NA,NA,NA,NA,NA,0,0,0,51,0,0,37,6,California,4,West,9,Pacific
112190,City College of San Francisco,50 Frida Kahlo Drive,San Francisco,CA,94112-1898,8,4,1,4,2,2,5,40,-122.451155,37.725953,2019,0,15446,22120047,4770415,33458023,0,62764880,117631710,0,0,0,372,0,1157,985,6,California,4,West,9,Pacific
112260,Claremont McKenna College,500 E 9th St,Claremont,CA,91711-6400,8,2,2,7,2,6,21,31,-117.711188,34.102154,2019,56190,1326,NA,NA,NA,NA,NA,NA,315,16,0,0,0,0,0,6,California,4,West,9,Pacific
112288,Milan Institute-Visalia,6500 S. Mooney Blvd.,Visalia,CA,93277,8,9,3,2,2,-2,-2,-2,-119.312151,36.27164,2019,NA,384,NA,NA,NA,NA,NA,NA,0,0,0,6,0,0,270,6,California,4,West,9,Pacific
112367,Clovis Adult Education,1452 David E Cook Way,Clovis,CA,93611,8,7,1,2,2,-2,-2,-2,-119.690369,36.834459,2019,NA,294,681234,293431,228654,0,1255880,0,0,0,0,71,0,0,267,6,California,4,West,9,Pacific
112385,Coastline Community College,11460 Warner Ave.,Fountain Valley,CA,92708-2597,8,4,1,3,2,1,3,40,-117.929143,33.715634,2019,1104,5870,5971525,1413000,7193247,4546296,5695438,20567880,0,0,0,5,0,1361,554,6,California,4,West,9,Pacific
112394,Cogswell College,191 Baypointe Parkway,San Jose,CA,95134,8,3,3,7,2,18,22,32,-121.94087,37.414049,2019,19800,506,NA,NA,NA,NA,NA,NA,116,0,0,0,0,0,0,6,California,4,West,9,Pacific
112455,Coba Academy,663 N. Euclid Street,Anaheim,CA,92801,8,9,3,2,2,-2,-2,-2,-117.943108,33.841141,2019,NA,93,NA,NA,NA,NA,NA,NA,0,0,0,24,0,0,26,6,California,4,West,9,Pacific
112561,Columbia College,11600 Columbia College Dr,Sonora,CA,95370,8,4,1,3,2,1,5,40,-120.388385,38.030367,2019,1104,1430,936826,1636067,4078561,209944,0,0,0,0,0,14,0,233,94,6,California,4,West,9,Pacific
112570,Columbia College Hollywood,18618 Oxnard St,Tarzana,CA,91356-1411,8,2,2,5,2,6,30,56,-118.538793,34.17972,2019,24000,761,NA,NA,NA,NA,NA,NA,64,0,0,0,0,7,0,6,California,4,West,9,Pacific
112686,Compton College,1111 East Artesia Blvd.,Compton,CA,90221-5393,8,4,1,3,2,2,3,40,-118.209463,33.878226,2019,1104,3868,1536899,628779,13221329,1502439,28781354,9054571,0,0,0,25,0,495,60,6,California,4,West,9,Pacific
112826,Contra Costa College,2600 Mission Bell Dr,San Pablo,CA,94806-3195,8,4,1,3,2,1,3,40,-122.337377,37.969381,2019,1288,4067,2931954,0,0,0,9427583,20235090,0,0,0,71,0,590,369,6,California,4,West,9,Pacific
113096,Cosumnes River College,8401 Center Parkway,Sacramento,CA,95823-5799,8,4,1,4,2,2,4,40,-121.423108,38.45295,2019,0,10200,5423640,1273113,11082945,992137,34085846,14565127,0,0,0,108,0,850,219,6,California,4,West,9,Pacific
113111,Crafton Hills College,11711 Sand Canyon Road,Yucaipa,CA,92339-1799,8,4,1,4,2,1,4,40,-117.101173,34.039178,2019,1104,4043,2436900,711830,9071762,721913,17153056,16135042,0,0,0,210,0,414,210,6,California,4,West,9,Pacific
113193,Cuesta College,Highway 1,San Luis Obispo,CA,93403-8106,8,4,1,4,2,1,2,40,-120.742235,35.331276,2019,1288,6131,6330720,941631,10195869,3142496,9672563,51263388,0,0,0,309,0,840,37,6,California,4,West,9,Pacific
113218,Cuyamaca College,900 Rancho San Diego Pky,El Cajon,CA,92019,8,4,1,3,2,1,2,40,-116.943507,32.744954,2019,1288,4609,2389179,11408512,8690868,0,13998029,7998620,0,0,0,116,0,693,64,6,California,4,West,9,Pacific
113236,Cypress College,9200 Valley View,Cypress,CA,90630-5897,8,1,1,5,2,5,4,40,-118.025143,33.82833,2019,1104,9620,8818318,2174461,16791759,1005870,39148608,49737328,0,0,0,446,0,1170,346,6,California,4,West,9,Pacific
113333,De Anza College,21250 Stevens Creek Blvd.,Cupertino,CA,95014,8,4,1,4,2,1,2,40,-122.045558,37.320788,2019,1395,14172,28493464,0,0,0,5105126,56902409,0,0,0,107,0,1759,436,6,California,4,West,9,Pacific
113449,International School of Beauty Inc,72261 Hwy 111 Ste 121-B,Palm Desert,CA,92260-2740,8,9,3,2,2,-2,-2,-2,-116.403928,33.729555,2019,NA,256,NA,NA,NA,NA,NA,NA,0,0,0,75,0,0,52,6,California,4,West,9,Pacific
113537,Dell'Arte International School of Physical Theatre,131 H Street,Blue Lake,CA,95525-0816,8,2,2,7,2,0,30,-2,-123.988808,40.880924,2019,12600,11,NA,NA,NA,NA,NA,NA,0,5,0,20,0,0,0,6,California,4,West,9,Pacific
113573,College of the Desert,43-500 Monterey Ave,Palm Desert,CA,92260,8,4,1,3,2,1,1,40,-116.388271,33.732108,2019,1297,7399,5269801,0,0,297099,15667360,70477376,0,0,0,90,0,946,136,6,California,4,West,9,Pacific
113582,Design Institute of San Diego,8555 Commerce Ave,San Diego,CA,92121,8,3,3,5,2,18,30,56,-117.167374,32.880926,2019,25610,110,NA,NA,NA,NA,NA,NA,26,0,0,0,0,0,0,6,California,4,West,9,Pacific
113634,Diablo Valley College,321 Golf Club Rd,Pleasant Hill,CA,94523,8,4,1,3,2,1,2,40,-122.073142,37.968516,2019,1288,13184,26226354,0,0,0,25833851,54624622,0,0,0,814,0,1733,643,6,California,4,West,9,Pacific
113698,Dominican University of California,50 Acacia Ave,San Rafael,CA,94901-2298,8,2,2,7,2,16,19,21,-122.512051,37.981279,2019,46260,1329,NA,NA,NA,NA,NA,NA,345,134,0,0,0,0,0,6,California,4,West,9,Pacific
113856,East Los Angeles College,1301 Avenida Cesar Chavez,Monterey Park,CA,91754-6099,8,4,1,4,2,2,1,40,-118.148785,34.040531,2019,1196,18149,14566379,8659282,15292617,7075590,91994522,44854961,0,0,0,1285,0,1657,2128,6,California,4,West,9,Pacific
113980,El Camino Community College District,16007 Crenshaw Blvd,Torrance,CA,90506,8,4,1,4,2,1,1,40,-118.329913,33.885229,2019,1104,15307,16967587,0,0,0,72385114,46169292,0,0,0,297,0,2322,347,6,California,4,West,9,Pacific
114044,Elegance International,6767 Sunset Blvd,Hollywood,CA,90028,8,9,3,2,2,-2,-2,-2,-118.338111,34.098445,2019,NA,277,NA,NA,NA,NA,NA,NA,0,0,0,216,0,0,0,6,California,4,West,9,Pacific
114123,Empire College,3035 Cleveland Ave,Santa Rosa,CA,95403-2126,8,3,3,9,2,5,7,40,-122.729337,38.468052,2019,NA,335,NA,NA,NA,NA,NA,NA,0,32,20,87,0,58,3,6,California,4,West,9,Pacific
114266,Evergreen Valley College,3095 Yerba Buena Rd,San Jose,CA,95135-1598,8,4,1,3,2,1,1,40,-121.76561,37.30167,2019,1306,6012,5084872,1530631,7004240,683347,6147118,35563752,0,0,0,179,0,667,53,6,California,4,West,9,Pacific
114354,FIDM-Fashion Institute of Design & Merchandising-Los Angeles,919 S Grand Ave,Los Angeles,CA,90015-1421,8,3,3,7,2,5,30,40,-118.25993,34.044209,2019,31362,2268,NA,NA,NA,NA,NA,NA,265,0,0,0,0,993,0,6,California,4,West,9,Pacific
114390,FIDM-Fashion Institute of Design & Merchandising-San Francisco,55 Stockton St,San Francisco,CA,94108-5805,8,3,3,5,2,5,29,-2,-122.406651,37.786353,2019,31362,170,NA,NA,NA,NA,NA,NA,22,0,0,0,0,98,0,6,California,4,West,9,Pacific
114433,Feather River Community College District,570 Golden Eagle Ave,Quincy,CA,95971-9124,8,1,1,5,2,5,3,40,-120.973067,39.953101,2019,1380,2227,1146034,2986256,3437491,0,6526489,6323194,8,0,0,11,0,218,37,6,California,4,West,9,Pacific
114460,Federico Beauty Institute,1515 Sports Drive    Ste 100,Sacramento,CA,95834,8,9,3,2,2,-2,-2,-2,-121.497761,38.64883,2019,NA,365,NA,NA,NA,NA,NA,NA,0,0,0,111,0,0,90,6,California,4,West,9,Pacific
114637,Redondo Beach Beauty College,2205 West Artesia Boulevard,Redondo Beach,CA,90278-3111,8,9,3,2,2,-2,-2,-2,-118.372137,33.873098,2019,NA,78,NA,NA,NA,NA,NA,NA,0,0,0,4,0,0,54,6,California,4,West,9,Pacific
114716,Foothill College,12345 El Monte Rd,Los Altos Hills,CA,94022,8,1,1,5,2,5,3,40,-122.127964,37.361655,2019,1395,9390,22481656,0,0,0,4028000,44896626,23,0,0,716,0,910,370,6,California,4,West,9,Pacific
114761,Fredrick and Charles Beauty College,831 F St,Eureka,CA,95501,8,9,3,2,2,-2,-2,-2,-124.164986,40.798885,2019,NA,48,NA,NA,NA,NA,NA,NA,0,0,0,31,0,0,22,6,California,4,West,9,Pacific
114789,Fresno City College,1101 E. University Ave,Fresno,CA,93741,8,4,1,4,2,2,4,40,-119.796096,36.768164,2019,1104,14654,6403376,4070806,20069259,0,63367352,21743161,0,0,0,250,0,1579,549,6,California,4,West,9,Pacific
114813,Fresno Pacific University,1717 S Chestnut Ave,Fresno,CA,93702-4709,8,2,2,7,2,19,18,21,-119.735199,36.726831,2019,32458,2580,NA,NA,NA,NA,NA,NA,654,294,0,0,6,0,0,6,California,4,West,9,Pacific
114859,Fullerton College,321 E Chapman Avenue,Fullerton,CA,92832-2095,8,4,1,3,2,1,1,40,-117.918255,33.875514,2019,1104,14028,13792753,3401080,26264033,1573285,61232437,77794283,0,0,0,102,0,1771,96,6,California,4,West,9,Pacific
114938,Gavilan College,5055 Santa Teresa Blvd,Gilroy,CA,95020,8,4,1,3,2,1,3,40,-121.569842,36.972627,2019,1104,3357,2620410,3169761,8374393,267010,460162,30111086,0,0,0,0,0,561,631,6,California,4,West,9,Pacific
114947,Gemological Institute of America-Carlsbad,5345 Armada Dr,Carlsbad,CA,92008,8,8,2,1,2,-2,-2,-2,-117.318765,33.131313,2019,NA,251,NA,NA,NA,NA,NA,NA,0,0,0,0,0,0,276,6,California,4,West,9,Pacific
115001,Glendale Community College,1500 N Verdugo Rd,Glendale,CA,91208-2894,8,4,1,3,2,1,4,40,-118.227666,34.16745,2019,1104,11562,9991046,2916203,18328345,3456396,62347498,29133062,0,0,0,98,0,865,170,6,California,4,West,9,Pacific
115010,Glendale Career College,240 North Brand Boulevard Lower Level,Glendale,CA,91203,8,3,3,5,2,4,-2,-2,-118.254719,34.149771,2019,NA,751,NA,NA,NA,NA,NA,NA,0,0,0,173,0,7,26,6,California,4,West,9,Pacific
115083,Golden Gate University-San Francisco,536 Mission Street,San Francisco,CA,94105-2968,8,2,2,9,2,20,18,55,-122.398969,37.789374,2019,15840,401,NA,NA,NA,NA,NA,NA,119,671,88,0,20,8,2,6,California,4,West,9,Pacific
115126,Golden West College,15744 Goldenwest St.,Huntington Beach,CA,92647-2710,8,4,1,3,2,1,1,40,-118.002568,33.732531,2019,1104,7254,10003804,2367131,12050496,7616187,8979332,34456366,0,0,0,1033,0,1155,198,6,California,4,West,9,Pacific
115296,Grossmont College,8800 Grossmont College Dr,El Cajon,CA,92020-1799,8,4,1,4,2,1,1,40,-117.006277,32.815246,2019,1288,10788,4059893,21359335,16271285,0,13103750,14975239,0,0,0,1141,0,1597,146,6,California,4,West,9,Pacific
115357,Salon Success Academy-Riverside,6780 Indiana Ave. Ste #200,Riverside,CA,92506,8,9,3,2,2,-2,-2,-2,-117.391024,33.943149,2019,NA,124,NA,NA,NA,NA,NA,NA,0,0,0,35,0,0,6,6,California,4,West,9,Pacific
115393,Hartnell College,411 Central Avenue,Salinas,CA,93901,8,4,1,3,2,1,1,40,-121.666054,36.675091,2019,1400,6114,2374581,4452968,0,0,18405253,23462622,0,0,0,747,0,941,30,6,California,4,West,9,Pacific
115409,Harvey Mudd College,301 Platt Blvd.,Claremont,CA,91711,8,2,2,5,2,9,21,31,-117.709837,34.106515,2019,58359,884,NA,NA,NA,NA,NA,NA,185,0,0,0,0,0,0,6,California,4,West,9,Pacific
115658,Hilltop Beauty School,6317 Mission St,Daly City,CA,94014,8,9,3,2,2,-2,-2,-2,-122.461467,37.705502,2019,NA,114,NA,NA,NA,NA,NA,NA,0,0,0,44,0,0,25,6,California,4,West,9,Pacific
115728,Holy Names University,3500 Mountain Blvd,Oakland,CA,94619-1699,8,2,2,8,2,13,19,21,-122.187804,37.802276,2019,39576,602,NA,NA,NA,NA,NA,NA,104,97,0,0,31,0,0,6,California,4,West,9,Pacific
115755,Humboldt State University,1 Harpst Street,Arcata,CA,95521-8299,8,1,1,7,2,10,19,21,-124.078293,40.877481,2019,5742,6928,33131690,403779,593544,0,110361997,0,1942,222,0,0,1,0,0,6,California,4,West,9,Pacific
115773,Humphreys University-Stockton and Modesto Campuses,6650 Inglewood Ave,Stockton,CA,95207-3896,8,2,2,9,2,18,22,33,-121.316918,38.011489,2019,14580,301,NA,NA,NA,NA,NA,NA,111,14,20,8,0,46,0,6,California,4,West,9,Pacific
115861,Imperial Valley College,380 E. Aten Road,Imperial,CA,92251-0158,8,4,1,3,2,1,1,40,-115.503563,32.827209,2019,1104,6399,1855370,3115080,13703921,821807,27867816,19705506,0,0,0,451,0,872,158,6,California,4,West,9,Pacific
115931,Institute for Business and Technology,2400 Walsh Avenue,Santa Clara,CA,95051-1303,8,6,3,3,2,4,-2,-2,-121.969541,37.368642,2019,NA,486,NA,NA,NA,NA,NA,NA,0,0,0,0,0,46,403,6,California,4,West,9,Pacific
116226,Interior Designers Institute,1061 Camelback Street,Newport Beach,CA,92660,8,3,3,7,2,5,30,56,-117.865722,33.641393,2019,17950,124,NA,NA,NA,NA,NA,NA,21,0,0,0,0,35,0,6,California,4,West,9,Pacific
116350,Toni & Guy Hairdressing Academy-Santa Monica,1358 5th St,Santa Monica,CA,90401,8,9,3,2,2,-2,-2,-2,-118.494755,34.017276,2019,NA,272,NA,NA,NA,NA,NA,NA,0,0,0,142,0,0,0,6,California,4,West,9,Pacific
116439,Irvine Valley College,5500 Irvine Center Drive,Irvine,CA,92618-0301,8,4,1,3,2,1,1,40,-117.777539,33.675381,2019,1104,8782,15049240,893175,10916745,0,2018279,74574904,0,0,0,1312,0,1129,307,6,California,4,West,9,Pacific
116563,Bellus Academy-El Cajon,1073 E Main St,El Cajon,CA,92021,8,6,3,4,2,-2,-2,-2,-116.94627,32.794072,2019,NA,190,NA,NA,NA,NA,NA,NA,0,0,0,76,0,0,44,6,California,4,West,9,Pacific
116712,John F. Kennedy University,100 Ellinwood Way,Pleasant Hill,CA,94523-4817,8,2,2,9,2,13,19,21,-122.054761,37.956616,2019,8500,165,NA,NA,NA,NA,NA,NA,42,187,33,10,11,0,0,6,California,4,West,9,Pacific
116846,American Jewish University,15600 Mulholland Dr,Los Angeles,CA,90077-1519,8,2,2,7,2,7,21,31,-118.471706,34.128153,2019,30480,58,NA,NA,NA,NA,NA,NA,18,24,0,0,0,0,0,6,California,4,West,9,Pacific
117052,Reedley College,995 N Reed Ave,Reedley,CA,93654,8,4,1,4,2,2,4,40,-119.458555,36.605428,2019,1104,6635,3191709,4769388,10649370,0,29751788,10201701,0,0,0,169,0,862,723,6,California,4,West,9,Pacific
117104,Life Pacific University,1100 W. Covina Blvd.,San Dimas,CA,91773-3298,8,2,2,7,2,15,24,51,-117.829388,34.098705,2019,15792,471,NA,NA,NA,NA,NA,NA,94,28,0,0,0,29,0,6,California,4,West,9,Pacific
117140,University of La Verne,1950 Third St,La Verne,CA,91750-4401,8,2,2,9,2,13,17,16,-117.773262,34.100855,2019,43440,4552,NA,NA,NA,NA,NA,NA,1349,1027,135,0,0,36,0,6,California,4,West,9,Pacific
117168,Laguna College of Art and Design,2222 Laguna Canyon Rd,Laguna Beach,CA,92651,8,2,2,7,2,20,30,56,-117.772564,33.561448,2019,31600,658,NA,NA,NA,NA,NA,NA,92,16,0,2,4,0,0,6,California,4,West,9,Pacific
117195,Lake Tahoe Community College,One College Drive,South Lake Tahoe,CA,96150,8,4,1,3,2,1,3,40,-119.972574,38.926797,2019,1209,1495,3381493,773615,3135092,883316,8820766,6365907,0,0,0,19,0,143,2,6,California,4,West,9,Pacific
117238,Lancaster Beauty School,44646 N 10th St W,Lancaster,CA,93534,8,9,3,2,2,-2,-2,-2,-118.147547,34.694914,2019,NA,153,NA,NA,NA,NA,NA,NA,0,0,0,62,0,0,34,6,California,4,West,9,Pacific
117247,Laney College,900 Fallon Sreet,Oakland,CA,94607,8,4,1,3,2,2,6,40,-122.26283,37.797257,2019,1104,6294,6290527,1682895,12222512,896351,17573101,27537316,0,0,0,189,0,494,103,6,California,4,West,9,Pacific
117274,Lassen Community College,478-200 Hwy 139,Susanville,CA,96130,8,4,1,3,2,1,3,40,-120.633271,40.432053,2019,1104,1354,1399232,306484,3323042,0,11350545,2518101,0,0,0,96,0,147,1,6,California,4,West,9,Pacific
117557,Lincoln University,401 15th Street,Oakland,CA,94612-2801,8,2,2,9,2,20,29,55,-122.269745,37.804788,2019,10800,117,NA,NA,NA,NA,NA,NA,21,86,0,2,0,0,0,6,California,4,West,9,Pacific
117575,Southern California Seminary,2075 E. Madison Avenue,El Cajon,CA,92019-1108,8,2,2,9,2,20,24,-2,-116.905461,32.799614,2019,15588,41,NA,NA,NA,NA,NA,NA,4,35,6,0,0,0,0,6,California,4,West,9,Pacific
117627,La Sierra University,4500 Riverwalk Parkway,Riverside,CA,92505-8247,8,2,2,9,2,16,20,21,-117.500054,33.910704,2019,32580,1623,NA,NA,NA,NA,NA,NA,324,102,0,104,3,0,29,6,California,4,West,9,Pacific
117636,Loma Linda University,11139 Anderson Street,Loma Linda,CA,92350,8,2,2,9,2,20,25,16,-117.260605,34.051241,2019,31680,1055,NA,NA,NA,NA,NA,NA,356,453,571,24,36,73,18,6,California,4,West,9,Pacific
117645,Long Beach City College,4901 E. Carson St.,Long Beach,CA,90808-1706,8,4,1,4,2,2,7,40,-118.135633,33.833593,2019,1472,16156,12132729,6379985,35591805,5492094,77192646,42168543,0,0,0,131,0,1612,385,6,California,4,West,9,Pacific
117672,Southern California University of Health Sciences,16200 East Amber Valley Drive,Whittier,CA,90604,8,2,2,9,2,6,26,53,-117.983401,33.922966,2019,11947,615,NA,NA,NA,NA,NA,NA,17,7,122,0,0,0,34,6,California,4,West,9,Pacific
117690,Los Angeles Harbor College,1111 Figueroa Place,Wilmington,CA,90744-2397,8,4,1,3,2,1,1,40,-118.28186,33.784201,2019,1196,4706,5302792,1375878,5399615,3014340,31820467,15515117,0,0,0,351,0,816,27,6,California,4,West,9,Pacific
117706,Los Angeles Pierce College,6201 Winnetka Ave,Woodland Hills,CA,91371-0002,8,4,1,3,2,1,1,40,-118.575071,34.183949,2019,1196,11706,10158343,9088417,9708042,4394240,63690555,31054429,0,0,0,1256,0,1517,243,6,California,4,West,9,Pacific
117715,Los Angeles Southwest College,1600 W. Imperial Hwy.,Los Angeles,CA,90047-4899,8,4,1,3,2,1,3,40,-118.304674,33.929586,2019,1196,3371,1666874,3710626,3964775,1648302,23874426,11640763,0,0,0,244,0,454,66,6,California,4,West,9,Pacific
117724,Los Angeles Trade Technical College,400 W Washington Blvd,Los Angeles,CA,90015-4181,8,4,1,3,2,3,8,40,-118.269447,34.031907,2019,1196,7323,4154140,4239339,9326684,4614795,52459433,25578325,0,0,0,917,0,564,363,6,California,4,West,9,Pacific
117733,Los Angeles Valley College,5800 Fulton Avenue,Valley Glen,CA,91401-4096,8,4,1,4,2,1,2,40,-118.421734,34.175165,2019,1196,9711,7349189,9609214,8857386,4318535,57581463,28075740,0,0,0,904,0,1066,223,6,California,4,West,9,Pacific
117751,The Master's University and Seminary,21726 Placerita Canyon Road,Santa Clarita,CA,91321-1200,8,2,2,9,2,13,20,32,-118.518193,34.381755,2019,24950,1224,NA,NA,NA,NA,NA,NA,255,121,12,0,0,0,0,6,California,4,West,9,Pacific
117788,Los Angeles City College,855 N Vermont Ave,Los Angeles,CA,90029,8,4,1,4,2,2,6,40,-118.292169,34.087301,2019,1196,8571,7257667,7105344,10324830,3976649,57950274,28255566,0,0,0,608,0,770,605,6,California,4,West,9,Pacific
117803,Los Angeles County College of Nursing and Allied Health,1237 N. Mission Rd.,Los Angeles,CA,90033-1084,8,4,1,3,2,4,10,40,-118.211852,34.062647,2019,NA,144,574195,0,491710,0,0,5560029,0,0,0,0,0,85,0,6,California,4,West,9,Pacific
117867,Los Angeles Mission College,13356 Eldridge Avenue,Sylmar,CA,91342-3200,8,4,1,3,2,1,1,40,-118.4195,34.314668,2019,1196,5090,3167490,3988357,5190087,1875820,29321503,14296665,0,0,0,530,0,576,268,6,California,4,West,9,Pacific
117894,Los Medanos College,2700 East Leland Road,Pittsburg,CA,94565,8,4,1,3,2,2,4,40,-121.860967,38.006474,2019,1288,5778,3799400,0,0,0,13797220,29630710,0,0,0,600,0,937,521,6,California,4,West,9,Pacific
117946,Loyola Marymount University,One Lmu Drive,Los Angeles,CA,90045-2659,8,2,2,9,2,10,18,21,-118.415744,33.97085,2019,49550,6281,NA,NA,NA,NA,NA,NA,1574,746,298,0,99,0,0,6,California,4,West,9,Pacific
117955,Lu Ross Academy,470 East Thompson Blvd,Ventura,CA,93001-2729,8,9,3,2,2,-2,-2,-2,-119.293952,34.278034,2019,NA,335,NA,NA,NA,NA,NA,NA,0,0,0,115,0,0,144,6,California,4,West,9,Pacific
118134,Lyle's College of Beauty,2935 F St,Bakersfield,CA,93301,8,9,3,2,2,-2,-2,-2,-119.02387,35.386539,2019,NA,74,NA,NA,NA,NA,NA,NA,0,0,0,19,0,0,38,6,California,4,West,9,Pacific
118143,Lyle's College of  Beauty,6735 N First Ave Ste 112,Fresno,CA,93710,8,9,3,2,2,-2,-2,-2,-119.774167,36.836265,2019,NA,63,NA,NA,NA,NA,NA,NA,0,0,0,21,0,0,17,6,California,4,West,9,Pacific
118161,Lytles Redwood Empire Beauty College Inc,186 Wikiup Dr,Santa Rosa,CA,95403,8,9,3,2,2,-2,-2,-2,-122.75777,38.508385,2019,NA,148,NA,NA,NA,NA,NA,NA,0,0,0,55,0,0,42,6,California,4,West,9,Pacific
118198,MTI College,5221 Madison Avenue,Sacramento,CA,95841-9817,8,6,3,4,2,3,9,40,-121.342568,38.661377,2019,NA,786,NA,NA,NA,NA,NA,NA,0,0,0,319,0,46,43,6,California,4,West,9,Pacific
118347,College of Marin,835 College Ave,Kentfield,CA,94904-2590,8,4,1,4,2,1,2,40,-122.549149,37.954897,2019,1380,3102,4337316,1044428,6933608,0,438234,54196031,0,0,0,46,0,298,32,6,California,4,West,9,Pacific
118541,Marymount California University,30800 Palos Verdes Drive East,Rancho Palos Verdes,CA,90275-6299,8,2,2,7,2,13,22,40,-118.333371,33.734887,2019,34134,759,NA,NA,NA,NA,NA,NA,167,20,0,0,0,189,0,6,California,4,West,9,Pacific
118684,Mendocino College,1000 Hensley Creek Road,Ukiah,CA,95482,8,4,1,3,2,1,3,40,-123.228809,39.188989,2019,1380,2151,1240355,1560981,5027083,3797994,11371354,12909657,0,0,0,10,0,305,43,6,California,4,West,9,Pacific
118693,Menlo College,1000 El Camino Real,Atherton,CA,94027-4301,8,2,2,5,2,18,29,32,-122.190797,37.453475,2019,43526,723,NA,NA,NA,NA,NA,NA,205,0,0,0,0,0,0,6,California,4,West,9,Pacific
118718,Merced College,3600 M St,Merced,CA,95348-2898,8,4,1,4,2,2,4,40,-120.47646399999999,37.3353,2019,1104,7422,4755229,1902237,16467287,1468236,42206714,12300014,0,0,0,464,0,952,47,6,California,4,West,9,Pacific
118772,Merritt College,12500 Campus Dr,Oakland,CA,94619-3196,8,4,1,4,2,3,9,40,-122.167335,37.789088,2019,1104,4371,4168758,1115261,8099908,594015,11645765,18249091,0,0,0,111,0,359,425,6,California,4,West,9,Pacific
118888,Mills College,5000 MacArthur Blvd,Oakland,CA,94613,8,2,2,9,2,7,18,31,-122.182294,37.781425,2019,29340,693,NA,NA,NA,NA,NA,NA,196,207,7,3,40,0,0,6,California,4,West,9,Pacific
118912,MiraCosta College,One Barnard Drive,Oceanside,CA,92056-3899,8,1,1,5,2,5,1,40,-117.302606,33.190483,2019,1104,10588,13670112,4420281,12308802,215000,8965867,114119152,0,0,0,733,0,1485,1006,6,California,4,West,9,Pacific
118930,Mission College,3000 Mission College Blvd,Santa Clara,CA,95054-1897,8,4,1,4,2,1,3,40,-121.980783,37.391935,2019,1104,4438,6537901,0,0,0,0,73053980,0,0,0,239,0,452,92,6,California,4,West,9,Pacific
118958,Modern Beauty Academy,699 South C St,Oxnard,CA,93030,8,9,3,2,2,-2,-2,-2,-119.181423,34.195384,2019,NA,57,NA,NA,NA,NA,NA,NA,0,0,0,14,0,0,13,6,California,4,West,9,Pacific
118976,Modesto Junior College,435 College Ave,Modesto,CA,95350-5800,8,1,1,5,2,5,4,40,-121.009792,37.651056,2019,1104,11812,6229322,4492892,20386298,3283852,0,0,0,0,0,402,0,1431,590,6,California,4,West,9,Pacific
118994,Moler Barber College,3815 Telegraph Ave,Oakland,CA,94609-2419,8,9,3,2,2,-2,-2,-2,-122.265352,37.827075,2019,NA,349,NA,NA,NA,NA,NA,NA,0,0,0,110,0,0,0,6,California,4,West,9,Pacific
119058,Middlebury Institute of International Studies at Monterey,460 Pierce Street,Monterey,CA,93940,8,2,2,7,2,8,18,21,-121.897325,36.599736,2019,41594,5,NA,NA,NA,NA,NA,NA,6,390,0,0,4,0,0,6,California,4,West,9,Pacific
119067,Monterey Peninsula College,980 Fremont St,Monterey,CA,93940-4799,8,4,1,3,2,2,3,40,-121.884931,36.590558,2019,1104,4558,4553119,2669972,8060890,266476,14695010,11653279,0,0,0,174,0,588,160,6,California,4,West,9,Pacific
119137,Moorpark College,7075 Campus Rd,Moorpark,CA,93021-1695,8,4,1,4,2,1,1,40,-118.834528,34.301146,2019,1340,9647,9296601,627604,10324174,334714,32048042,26127186,0,0,0,1279,0,1636,443,6,California,4,West,9,Pacific
119164,Mt San Antonio College,1100 N Grand Ave,Walnut,CA,91789-1399,8,4,1,3,2,2,4,40,-117.846629,34.047764,2019,1288,20429,20424704,5261415,38669194,481749,112113017,76814974,0,0,0,169,0,2299,736,6,California,4,West,9,Pacific
119173,Mount Saint Mary's University,12001 Chalon Rd,Los Angeles,CA,90049-1599,8,2,2,9,2,16,19,21,-118.482879,34.085315,2019,41592,2182,NA,NA,NA,NA,NA,NA,556,213,30,0,59,218,0,6,California,4,West,9,Pacific
119216,Mt San Jacinto Community College District,1499 N. State St.,San Jacinto,CA,92583-2399,8,4,1,3,2,1,1,40,-116.971169,33.806748,2019,1380,10384,5282690,3721914,13786468,53189,40059101,30237511,0,0,0,124,0,1438,0,6,California,4,West,9,Pacific
119270,Musicians Institute,6752 Hollywood Blvd.,Hollywood,CA,90028,8,3,3,5,2,5,30,56,-118.337582,34.101265,2019,24525,1062,NA,NA,NA,NA,NA,NA,25,0,0,119,0,137,153,6,California,4,West,9,Pacific
119331,Napa Valley College,2277 Napa-Vallejo Hwy,Napa,CA,94558-6236,8,4,1,3,2,1,1,40,-122.274381,38.274081,2019,1104,3677,3714410,2439231,7744253,580409,1082941,31099513,0,0,0,350,0,564,84,6,California,4,West,9,Pacific
119553,National Holistic Institute,5900 Doyle Street,Emeryville,CA,94608-2008,8,9,3,2,2,-2,-2,-2,-122.287672,37.841898,2019,NA,1243,NA,NA,NA,NA,NA,NA,0,0,0,676,0,0,34,6,California,4,West,9,Pacific
119605,National University,11255 North Torrey Pines Road,La Jolla,CA,92037-1011,8,2,2,9,2,19,18,21,-117.243026,32.909894,2019,13320,6442,NA,NA,NA,NA,NA,NA,1860,3277,0,0,7,165,9,6,California,4,West,9,Pacific
119775,Newschool of Architecture and Design,1249 F St,San Diego,CA,92101,8,3,3,7,2,20,30,56,-117.153305,32.71331,2019,27786,423,NA,NA,NA,NA,NA,NA,90,37,0,0,0,0,0,6,California,4,West,9,Pacific
119845,Newberry School of Beauty,16860 Devonshire Blvd,Granada Hills,CA,91344-7401,8,9,3,2,2,-2,-2,-2,-118.499693,34.256683,2019,NA,125,NA,NA,NA,NA,NA,NA,0,0,0,55,0,0,46,6,California,4,West,9,Pacific
119951,North Adrian's College of Beauty Inc,124 Floyd Ave,Modesto,CA,95350-2381,8,9,3,2,2,-2,-2,-2,-120.992753,37.677778000000004,2019,NA,86,NA,NA,NA,NA,NA,NA,0,0,0,52,0,0,34,6,California,4,West,9,Pacific
120069,North-West College-Pomona,170  W Holt Ave,Pomona,CA,91768,8,9,3,2,2,-2,-2,-2,-117.751227,34.062043,2019,NA,377,NA,NA,NA,NA,NA,NA,0,0,0,10,0,0,93,6,California,4,West,9,Pacific
120078,North-West College-West Covina,2121 W Garvey Ave,West Covina,CA,91790,8,6,3,4,2,4,-2,-2,-117.949583,34.072071,2019,NA,746,NA,NA,NA,NA,NA,NA,0,0,0,87,0,9,251,6,California,4,West,9,Pacific
120087,North-West College-Van Nuys,14540 Haynes,Van Nuys,CA,91411,8,9,3,2,2,-2,-2,-2,-118.450184,34.189497,2019,NA,342,NA,NA,NA,NA,NA,NA,0,0,0,2,0,0,39,6,California,4,West,9,Pacific
120166,Northwestern Polytechnic University,47671 Westinghouse Drive,Fremont,CA,94539,8,2,2,7,2,-2,-2,-2,-121.925953,37.477991,2019,7920,22,NA,NA,NA,NA,NA,NA,NA,NA,NA,NA,NA,NA,NA,6,California,4,West,9,Pacific
120184,Notre Dame de Namur University,1500 Ralston Ave,Belmont,CA,94002-1908,8,2,2,9,2,10,18,21,-122.284794,37.517111,2019,36306,780,NA,NA,NA,NA,NA,NA,247,204,3,0,0,0,0,6,California,4,West,9,Pacific
120254,Occidental College,1600 Campus Rd,Los Angeles,CA,90041-3392,8,2,2,7,2,6,21,31,-118.210908,34.127124,2019,55980,2054,NA,NA,NA,NA,NA,NA,509,0,0,0,0,0,0,6,California,4,West,9,Pacific
120290,Ohlone College,43600 Mission Blvd,Fremont,CA,94539-0390,8,4,1,3,2,1,2,40,-121.916339,37.52773,2019,1104,6049,10376014,7528696,10288426,0,23553109,20929268,0,0,0,17,0,681,388,6,California,4,West,9,Pacific
120342,Orange Coast College,2701 Fairview Road,Costa Mesa,CA,92626,8,4,1,4,2,1,1,40,-117.909086,33.66927,2019,1104,13233,16395436,3879538,19749800,12482323,13867285,56471232,0,0,0,2144,0,2107,476,6,California,4,West,9,Pacific
120403,Otis College of Art and Design,9045 Lincoln Blvd,Los Angeles,CA,90045-3505,8,2,2,7,2,14,30,56,-118.416615,33.956607,2019,45200,1037,NA,NA,NA,NA,NA,NA,278,27,0,0,0,0,0,6,California,4,West,9,Pacific
120421,Oxnard College,4000 S Rose Ave,Oxnard,CA,93033-6699,8,4,1,3,2,1,4,40,-119.157604,34.166104,2019,1340,4322,1020453,2343611,8125083,423880,17246989,14134828,0,0,0,546,0,687,246,6,California,4,West,9,Pacific
120537,Hope International University,2500 E Nutwood Ave,Fullerton,CA,92831-3199,8,2,2,7,2,13,19,21,-117.88573,33.87616,2019,32250,855,NA,NA,NA,NA,NA,NA,147,113,0,0,2,4,0,6,California,4,West,9,Pacific
120661,Concorde Career College-San Diego,"4393 Imperial Avenue, Suite 100",San Diego,CA,92113-1964,8,6,3,3,2,4,10,-2,-117.102845,32.702814,2019,NA,650,NA,NA,NA,NA,NA,NA,0,0,0,51,0,117,235,6,California,4,West,9,Pacific
120698,Palo Alto University,1791 Arastradero Rd,Palo Alto,CA,94304-1337,8,2,2,9,2,8,26,59,-122.187437,37.382216,2019,17454,102,NA,NA,NA,NA,NA,NA,57,191,98,0,0,0,0,6,California,4,West,9,Pacific
120768,Pacific Oaks College,45 Eureka Street,Pasadena,CA,91103,8,2,2,7,2,20,32,59,-118.151323,34.153382,2019,13689,321,NA,NA,NA,NA,NA,NA,243,226,0,0,0,0,0,6,California,4,West,9,Pacific
120838,Pacific States University,3424 Wilshire Blvd. 12th floor,Los Angeles,CA,90010-2263,8,2,2,7,2,8,29,55,-118.298408,34.061315,2019,15525,4,NA,NA,NA,NA,NA,NA,2,43,3,0,0,0,0,6,California,4,West,9,Pacific
120865,Pacific Union College,One Angwin Ave,Angwin,CA,94508-9707,8,2,2,7,2,16,21,32,-122.440308,38.570585,2019,29898,972,NA,NA,NA,NA,NA,NA,247,0,0,0,0,115,0,6,California,4,West,9,Pacific
120883,University of the Pacific,3601 Pacific Ave,Stockton,CA,95211-0197,8,2,2,9,2,13,17,16,-121.312301,37.981424,2019,48904,3887,NA,NA,NA,NA,NA,NA,855,375,552,0,0,0,0,6,California,4,West,9,Pacific
120953,Palo Verde College,One College Drive,Blythe,CA,92225,8,4,1,3,2,3,5,40,-114.651698,33.661538,2019,1380,1529,689021,1209566,3790179,515792,14685201,2621755,0,0,0,8,0,106,231,6,California,4,West,9,Pacific
120971,Palomar College,1140 W. Mission,San Marcos,CA,92069-1487,8,4,1,3,2,1,1,40,-117.183978,33.149483,2019,1288,14615,15251589,9002160,23593794,4359303,31093375,103573303,0,0,0,1413,0,1527,793,6,California,4,West,9,Pacific
121044,Pasadena City College,1570 E Colorado Blvd.,Pasadena,CA,91106-2003,8,4,1,4,2,1,1,40,-118.118196,34.144552,2019,1104,19536,27629175,8058899,28843841,907304,90655361,33777348,0,0,0,367,0,2850,142,6,California,4,West,9,Pacific
121150,Pepperdine University,24255 Pacific Coast Hwy,Malibu,CA,90263,8,2,2,9,2,13,17,16,-118.707077,34.037786,2019,55640,4132,NA,NA,NA,NA,NA,NA,878,1472,287,0,10,0,0,6,California,4,West,9,Pacific
121257,Pitzer College,1050 North Mills Avenue,Claremont,CA,91711-6101,8,2,2,5,2,6,21,31,-117.706675,34.104107,2019,55734,1040,NA,NA,NA,NA,NA,NA,254,0,0,0,0,0,0,6,California,4,West,9,Pacific
121275,Platt College-San Diego,6250 El Cajon Blvd,San Diego,CA,92115-3919,8,3,3,5,2,5,30,40,-117.063483,32.76373,2019,17125,189,NA,NA,NA,NA,NA,NA,41,0,0,0,0,49,0,6,California,4,West,9,Pacific
121309,Point Loma Nazarene University,3900 Lomaland Dr,San Diego,CA,92106-2899,8,2,2,9,2,16,18,22,-117.250265,32.718391,2019,36350,2902,NA,NA,NA,NA,NA,NA,893,374,0,0,0,0,0,6,California,4,West,9,Pacific
121345,Pomona College,550 N College Ave,Claremont,CA,91711-6319,8,2,2,5,2,6,21,31,-117.714556,34.099027,2019,54380,1696,NA,NA,NA,NA,NA,NA,419,0,0,0,0,0,0,6,California,4,West,9,Pacific
121363,Porterville College,100 E College Ave,Porterville,CA,93257,8,4,1,3,2,2,1,40,-119.014368,36.049256,2019,1380,2763,946739,377689,5362218,425242,8855409,8981451,0,0,0,65,0,420,138,6,California,4,West,9,Pacific
121433,Professional Institute of Beauty,10801 E. Valley Mall,El Monte,CA,91731,8,9,3,2,2,-2,-2,-2,-118.039028,34.075561,2019,NA,111,NA,NA,NA,NA,NA,NA,0,0,0,52,0,0,1,6,California,4,West,9,Pacific
121619,Santa Ana College,1530 W. 17th Street,Santa Ana,CA,92706-3398,8,1,1,5,2,5,2,40,-117.887558,33.759309,2019,1104,12559,8133019,0,0,0,42276423,52083163,0,0,0,1263,0,1803,7701,6,California,4,West,9,Pacific
121637,Shasta School of Cosmetology,678 N Market St,Redding,CA,96003,8,9,3,2,2,-2,-2,-2,-122.387248,40.597114,2019,NA,78,NA,NA,NA,NA,NA,NA,0,0,0,21,0,0,27,6,California,4,West,9,Pacific
121691,University of Redlands,1200 E. Colton Ave,Redlands,CA,92373-0999,8,2,2,9,2,13,18,21,-117.163218,34.064218,2019,50630,3110,NA,NA,NA,NA,NA,NA,786,809,2,25,14,0,49,6,California,4,West,9,Pacific
121707,College of the Redwoods,7351 Tompkins Hill Rd,Eureka,CA,95501-9300,8,4,1,4,2,2,3,40,-124.195293,40.698427,2019,1143,2815,2696173,1600300,7810721,500341,16596433,9770022,0,0,0,99,0,443,62,6,California,4,West,9,Pacific
121859,Salon Success Academy-Upland,1385 E. Foothill Blvd,Upland,CA,91786,8,9,3,2,2,-2,-2,-2,-117.631783,34.108247,2019,NA,214,NA,NA,NA,NA,NA,NA,0,0,0,77,0,0,66,6,California,4,West,9,Pacific
121868,Salon Success Academy-Corona,2097 Compton Ave. Suite 201,Corona,CA,92881,8,9,3,2,2,-2,-2,-2,-117.535638,33.847649,2019,NA,113,NA,NA,NA,NA,NA,NA,0,0,0,21,0,0,58,6,California,4,West,9,Pacific
121886,Rio Hondo College,3600 Workman Mill Rd,Whittier,CA,90601-1616,8,1,1,5,2,5,5,40,-118.033506,34.019821,2019,1288,10358,6885120,0,0,0,58659623,7307804,0,0,0,970,0,1244,1095,6,California,4,West,9,Pacific
121901,Riverside City College,4800 Magnolia Avenue,Riverside,CA,92506,8,4,1,3,2,1,5,40,-117.384323,33.970918,2019,1380,13317,9675240,6869085,25114441,5222614,63208485,30085952,0,0,0,252,0,1749,564,6,California,4,West,9,Pacific
121992,Rosemead Beauty School,8531 E Valley Blvd,Rosemead,CA,91770-1639,8,9,3,2,2,-2,-2,-2,-118.082793,34.080756,2019,NA,209,NA,NA,NA,NA,NA,NA,0,0,0,49,0,0,365,6,California,4,West,9,Pacific
122117,Dongguk University-Los Angeles,440 Shatto Pl,Los Angeles,CA,90020-1704,8,2,2,9,2,0,26,53,-118.289523,34.06597,2019,7440,13,NA,NA,NA,NA,NA,NA,0,26,20,0,0,0,0,6,California,4,West,9,Pacific
122180,Sacramento City College,3835 Freeport Blvd,Sacramento,CA,95822-1386,8,4,1,4,2,1,1,40,-121.491139,38.541096,2019,0,15083,9317803,3396837,17327724,808105,52131294,22276076,0,0,0,152,0,1297,140,6,California,4,West,9,Pacific
122205,Saddleback College,28000 Marguerite Pky,Mission Viejo,CA,92692-3635,8,4,1,4,2,1,2,40,-117.665584,33.553346,2019,1288,12239,23322100,1384171,16917894,0,3311784,122369582,0,0,0,1829,0,1635,447,6,California,4,West,9,Pacific
122296,Samuel Merritt University,3100 Telegraph Avenue,Oakland,CA,94609,8,2,2,9,2,20,26,53,-122.266331,37.82029,2019,47928,935,NA,NA,NA,NA,NA,NA,507,289,77,0,6,0,0,6,California,4,West,9,Pacific
122339,San Diego City College,1313 Park Boulevard,San Diego,CA,92101-4787,8,4,1,3,2,2,4,40,-117.152733,32.717403,2019,1104,7799,5648323,3154451,8153433,1401160,40166158,44973548,0,0,0,177,0,811,539,6,California,4,West,9,Pacific
122375,San Diego Mesa College,7250 Mesa College Dr,San Diego,CA,92111-4998,8,1,1,5,2,5,1,40,-117.169165,32.803825,2019,1104,12443,7622136,3729384,9639484,1656537,47486877,53170466,0,0,0,259,0,1575,129,6,California,4,West,9,Pacific
122384,San Diego Miramar College,10440 Black Mountain Rd,San Diego,CA,92126-2999,8,4,1,4,2,2,5,40,-117.120261,32.909757,2019,1104,7633,4578347,2283918,5903332,1014482,29081515,32562211,0,0,0,194,0,1000,463,6,California,4,West,9,Pacific
122409,San Diego State University,5500 Campanile Dr,San Diego,CA,92182-0001,8,1,1,9,2,14,16,16,-117.071228,32.77525,2019,5742,28938,215742971,73139,71047,0,284541742,0,7784,1724,139,0,156,0,0,6,California,4,West,9,Pacific
122436,University of San Diego,5998 Alcala Park,San Diego,CA,92110-2492,8,2,2,9,2,13,17,16,-117.192073,32.770816,2019,50450,5990,NA,NA,NA,NA,NA,NA,1387,917,314,0,125,0,0,6,California,4,West,9,Pacific
122454,San Francisco Art Institute,800 Chestnut St,San Francisco,CA,94133-2299,8,2,2,7,2,7,30,56,-122.417,37.803575,2019,45664,262,NA,NA,NA,NA,NA,NA,87,64,0,0,4,0,0,6,California,4,West,9,Pacific
122506,San Francisco Conservatory of Music,50 Oak Street,San Francisco,CA,94102-6011,8,2,2,8,2,8,30,56,-122.420292,37.775543,2019,46350,250,NA,NA,NA,NA,NA,NA,33,83,0,34,4,0,0,6,California,4,West,9,Pacific
122597,San Francisco State University,1600 Holloway Ave,San Francisco,CA,94132,8,1,1,9,2,14,17,21,-122.476799,37.721224,2019,5742,23758,142006383,21172730,2781807,1881747,254022449,0,6288,956,59,0,125,0,0,6,California,4,West,9,Pacific
122612,University of San Francisco,2130 Fulton St,San Francisco,CA,94117-1080,8,2,2,9,2,16,17,16,-122.450477,37.776618,2019,49740,7055,NA,NA,NA,NA,NA,NA,1669,1466,252,0,1,0,0,6,California,4,West,9,Pacific
122658,San Joaquin Delta College,5151 Pacific Ave,Stockton,CA,95207,8,4,1,4,2,1,1,40,-121.318266,37.995129,2019,1288,12045,6791812,6007919,31873293,0,50788027,35859152,0,0,0,254,0,1717,417,6,California,4,West,9,Pacific
122685,San Joaquin Valley College-Visalia,8344 W Mineral King Ave,Visalia,CA,93291-9283,8,3,3,5,2,5,9,40,-119.384981,36.328049,2019,NA,9883,NA,NA,NA,NA,NA,NA,0,0,0,1727,0,1621,0,6,California,4,West,9,Pacific
122728,William Jessup University,2121 University Avenue,Rocklin,CA,95765-3707,8,2,2,7,2,13,22,51,-121.292312,38.819728,2019,34200,1293,NA,NA,NA,NA,NA,NA,296,48,0,9,0,0,0,6,California,4,West,9,Pacific
122746,San Jose City College,2100 Moorpark Ave,San Jose,CA,95128-2798,8,4,1,3,2,2,7,40,-121.926185,37.315827,2019,1288,4911,5653416,2119401,8425668,696981,6269767,36273331,0,0,0,310,0,522,252,6,California,4,West,9,Pacific
122755,San Jose State University,One Washington Square,San Jose,CA,95192-0001,8,1,1,9,2,17,18,21,-121.880621,37.336569,2019,5742,24271,187942452,0,0,0,240961874,0,6691,2824,10,0,164,0,0,6,California,4,West,9,Pacific
122791,College of San Mateo,1700 W Hillsdale Blvd,San Mateo,CA,94402-3784,8,4,1,3,2,1,2,40,-122.334801,37.535698,2019,1362,5080,6878032,0,0,0,2429427,58493132,0,0,0,333,0,706,295,6,California,4,West,9,Pacific
122834,Santa Barbara Business College-Bakersfield,5300 California Avenue,Bakersfield,CA,93309,8,3,3,7,2,5,23,-2,-119.061264,35.359544,2019,11558,404,NA,NA,NA,NA,NA,NA,39,0,0,91,0,105,0,6,California,4,West,9,Pacific
122852,Santa Barbara Business College-Santa Maria,303 E Plaza Dr Ste 1,Santa Maria,CA,93454,8,3,3,5,2,5,14,-2,-120.433296,34.937806,2019,11558,109,NA,NA,NA,NA,NA,NA,11,0,0,7,0,29,0,6,California,4,West,9,Pacific
122889,Santa Barbara City College,721 Cliff Drive,Santa Barbara,CA,93109-2394,8,4,1,4,2,1,1,40,-119.698045,34.406788,2019,1380,10469,24032565,4046348,32971209,1900770,24769464,31530969,0,0,0,925,0,1244,109,6,California,4,West,9,Pacific
122931,Santa Clara University,500 El Camino Real,Santa Clara,CA,95053,8,2,2,9,2,13,18,21,-121.93784,37.348362,2019,52998,5530,NA,NA,NA,NA,NA,NA,1395,853,248,0,105,0,0,6,California,4,West,9,Pacific
122977,Santa Monica College,1900 Pico Blvd,Santa Monica,CA,90405-1628,8,1,1,5,2,5,1,40,-118.469765,34.017022,2019,1104,19784,60272312,5013816,18612391,2373834,92326280,34928167,13,0,0,2078,0,3235,362,6,California,4,West,9,Pacific
123013,Santa Rosa Junior College,1501 Mendocino Avenue,Santa Rosa,CA,95401-4395,8,4,1,4,2,3,4,40,-122.718974,38.45709,2019,1282,11414,15419111,3241514,24893440,5762916,32536288,56622499,0,0,0,204,0,1801,2419,6,California,4,West,9,Pacific
123165,Scripps College,1030 North Columbia Avenue,Claremont,CA,91711-3905,8,2,2,6,2,6,21,31,-117.711294,34.104147,2019,56970,1029,NA,NA,NA,NA,NA,NA,221,0,0,1,15,0,0,6,California,4,West,9,Pacific
123217,College of the Sequoias,915 S. Mooney Blvd,Visalia,CA,93277-2214,8,4,1,3,2,2,4,40,-119.315182,36.323877,2019,1288,8222,3900384,0,0,0,43201743,28189999,0,0,0,221,0,1114,623,6,California,4,West,9,Pacific
123280,Shasta Bible College and Graduate School,2951 Goodwater Ave.,Redding,CA,96002,8,2,2,7,2,20,24,51,-122.314419,40.566034,2019,12000,30,NA,NA,NA,NA,NA,NA,9,4,0,3,0,0,0,6,California,4,West,9,Pacific
123299,Shasta College,11555 Old Oregon Trail,Redding,CA,96003,8,1,1,5,2,5,2,40,-122.317982,40.625731,2019,1104,5593,4620160,1914186,11903059,945144,24087588,16217456,2,0,0,401,0,815,217,6,California,4,West,9,Pacific
123341,Sierra College,5100 Sierra College Blvd,Rocklin,CA,95677-3397,8,4,1,3,2,1,1,40,-121.211688,38.790773,2019,1104,11809,14200686,1972671,28381324,2103297,2025044,74958725,0,0,0,35,0,2074,272,6,California,4,West,9,Pacific
123350,Sierra College of Beauty,1340 W 18th St,Merced,CA,95340,8,9,3,2,2,-2,-2,-2,-120.495874,37.306975,2019,NA,157,NA,NA,NA,NA,NA,NA,0,0,0,40,0,0,15,6,California,4,West,9,Pacific
123457,Simpson University,2211 College View Drive,Redding,CA,96003-8606,8,2,2,7,2,13,20,22,-122.332981,40.61334,2019,31180,593,NA,NA,NA,NA,NA,NA,275,36,0,0,0,0,0,6,California,4,West,9,Pacific
123484,College of the Siskiyous,800 College Ave,Weed,CA,96094-2899,8,4,1,3,2,2,6,40,-122.38909,41.413005,2019,1104,1139,2125299,761515,3491292,0,13121956,5647022,0,0,0,0,0,194,111,6,California,4,West,9,Pacific
123493,Charles A Jones Career and Education Center,5451 Lemon Hill Ave,Sacramento,CA,95824-1529,8,4,1,4,2,-2,-2,-2,-121.440796,38.516233,2019,NA,295,1103594,0,417231,0,534596,0,0,0,0,230,0,0,42,6,California,4,West,9,Pacific
123509,Skyline College,3300 College Dr,San Bruno,CA,94066-1698,8,1,1,5,2,5,6,40,-122.467335,37.63042,2019,1380,5411,7162012,0,0,0,2529734,60908206,14,0,0,71,0,643,293,6,California,4,West,9,Pacific
123527,San Bernardino Valley College,701 South Mount Vernon Avenue,San Bernardino,CA,92410-2798,8,4,1,4,2,2,4,40,-117.313248,34.086353,2019,0,9095,5686100,1423660,18143525,1443827,34306112,32270085,0,0,0,137,0,753,73,6,California,4,West,9,Pacific
123554,Saint Mary's College of California,1928 Saint Marys Road,Moraga,CA,94575,8,2,2,9,2,13,18,21,-122.109031,37.840731,2019,48988,2887,NA,NA,NA,NA,NA,NA,657,406,8,0,130,0,0,6,California,4,West,9,Pacific
123563,Solano Community College,4000 Suisun Valley Rd,Fairfield,CA,94534-3197,8,1,1,5,2,5,2,40,-122.122368,38.235881,2019,1104,5736,4165725,0,0,0,25623974,28924505,0,0,0,32,0,714,234,6,California,4,West,9,Pacific
123572,Sonoma State University,1801 E Cotati Ave,Rohnert Park,CA,94928-3609,8,1,1,8,2,13,18,21,-122.677066,38.340274,2019,5742,8511,50482154,7155100,924145,151801,103480096,0,2207,251,0,0,16,0,0,6,California,4,West,9,Pacific
123642,South Coast College,2011 W. Chapman Avenue,Orange,CA,92868-2609,8,6,3,4,2,4,13,-2,-117.874031,33.78818,2019,11954,274,NA,NA,NA,NA,NA,NA,0,0,0,28,0,16,0,6,California,4,West,9,Pacific
123651,Vanguard University of Southern California,55 Fair Dr,Costa Mesa,CA,92626,8,2,2,8,2,13,20,32,-117.900911,33.662686,2019,34500,1728,NA,NA,NA,NA,NA,NA,460,105,0,0,0,5,4,6,California,4,West,9,Pacific
123679,Concorde Career College-Garden Grove,"12951 Euclid Street, Suite 101",Garden Grove,CA,92840-9201,8,6,3,3,2,4,10,-2,-117.938395,33.774741,2019,NA,591,NA,NA,NA,NA,NA,NA,0,0,0,89,0,105,186,6,California,4,West,9,Pacific
123800,Southwestern College,900 Otay Lakes Rd.,Chula Vista,CA,91910-7299,8,4,1,4,2,1,1,40,-116.996803,32.640281,2019,1288,12000,4855319,5735478,4828378,1561705,85858951,53182207,0,0,0,437,0,1594,368,6,California,4,West,9,Pacific
123952,Southern California Institute of Architecture,960 E. 3rd Street,Los Angeles,CA,90013-1822,8,2,2,7,2,20,30,56,-118.232799,34.044215,2019,45292,272,NA,NA,NA,NA,NA,NA,48,115,0,0,0,0,0,6,California,4,West,9,Pacific
123961,University of Southern California,University Park,Los Angeles,CA,90089,8,2,2,9,2,14,15,15,-118.284169,34.021281,2019,57256,21709,NA,NA,NA,NA,NA,NA,5063,8503,1658,0,1010,0,0,6,California,4,West,9,Pacific
124113,Taft College,29 Cougar Court,Taft,CA,93268,8,4,1,3,2,1,3,40,-119.459751,35.149343,2019,1104,2431,795961,0,0,0,15592830,10343060,0,0,0,3,0,392,115,6,California,4,West,9,Pacific
124292,Thomas Aquinas College,"10,000 Ojai Road",Santa Paula,CA,93060,8,2,2,5,2,6,21,31,-119.087141,34.429009,2019,25600,487,NA,NA,NA,NA,NA,NA,86,0,0,0,0,0,0,6,California,4,West,9,Pacific
124487,Epic Bible College,4330 Auburn Boulevard,Sacramento,CA,95841,8,2,2,9,2,5,24,-2,-121.362642,38.645152,2019,8964,80,NA,NA,NA,NA,NA,NA,15,7,0,1,0,18,0,6,California,4,West,9,Pacific
124681,United Education Institute-Huntington Park Campus,6055 Pacific Boulevard,Huntington Park,CA,90255,8,9,3,2,2,-2,13,-2,-118.226206,33.986057,2019,NA,1132,NA,NA,NA,NA,NA,NA,0,0,0,401,0,0,0,6,California,4,West,9,Pacific
124706,Concorde Career College-San Bernardino,"201 East Airport Drive, Suite A",San Bernardino,CA,92408-3403,8,6,3,3,2,4,10,-2,-117.283995,34.066823,2019,NA,665,NA,NA,NA,NA,NA,NA,0,0,0,82,0,101,262,6,California,4,West,9,Pacific
124937,Concorde Career College-North Hollywood,12412 Victory Boulevard,North Hollywood,CA,91606-3134,8,6,3,3,2,4,10,-2,-118.403627,34.186407,2019,NA,591,NA,NA,NA,NA,NA,NA,0,0,0,95,0,97,174,6,California,4,West,9,Pacific
125028,Ventura College,4667 Telegraph Rd,Ventura,CA,93003-3872,8,4,1,3,2,1,1,40,-119.230604,34.277393000000004,2019,1340,7949,4733295,925089,9864466,754108,28258035,23040112,0,0,0,1262,0,1505,184,6,California,4,West,9,Pacific
125091,Victor Valley College,18422 Bear Valley Rd,Victorville,CA,92395-5850,8,4,1,4,2,1,1,40,-117.261456,34.472231,2019,1402,7979,3353937,1442570,16266386,2095166,41312114,17510833,0,0,0,122,0,996,68,6,California,4,West,9,Pacific
125170,Berkeley City College,2050 Center Sreet,Berkeley,CA,94704,8,4,1,4,2,1,3,40,-122.269877,37.869769,2019,1104,3793,3767677,1007961,7320606,536864,10525313,16493325,0,0,0,266,0,312,49,6,California,4,West,9,Pacific
125231,Walden University,"100 Washington Avenue South, Suite 900",Minneapolis,MN,55401,4,3,3,9,2,20,17,16,-93.265738,44.98125,2019,10428,6639,NA,NA,NA,NA,NA,NA,1964,8772,1550,0,495,0,0,27,Minnesota,2,Midwest,4,West North Central
125310,Waynes College of Beauty,1271 North Main Street,Salinas,CA,93906-2830,8,9,3,2,2,-2,-2,-2,-121.652672,36.700635,2019,NA,41,NA,NA,NA,NA,NA,NA,0,0,0,9,0,0,10,6,California,4,West,9,Pacific
125462,West Hills College-Coalinga,300 Cherry Lane,Coalinga,CA,93210,8,4,1,3,2,2,5,40,-120.356747,36.147891,2019,1380,2349,830838,3685499,7804030,0,11454998,0,0,0,0,212,0,286,137,6,California,4,West,9,Pacific
125471,West Los Angeles College,9000 Overland Avenue,Culver City,CA,90230-3519,8,1,1,5,2,5,5,40,-118.386664,34.004512,2019,1196,7028,6177457,3354722,5013953,3317406,34784851,16960500,28,0,0,595,0,627,125,6,California,4,West,9,Pacific
125499,West Valley College,14000 Fruitvale Ave,Saratoga,CA,95070-5698,8,4,1,4,2,1,3,40,-122.008324,37.26398,2019,1380,5071,NA,NA,NA,NA,NA,NA,0,0,0,81,0,632,62,6,California,4,West,9,Pacific
125532,Carrington College-Sacramento,8909 Folsom Blvd.,Sacramento,CA,95826,8,6,3,3,2,4,10,40,-121.371331,38.556151,2019,NA,3498,NA,NA,NA,NA,NA,NA,0,0,0,451,0,416,0,6,California,4,West,9,Pacific
125727,Westmont College,955 La Paz Rd,Santa Barbara,CA,93108-1089,8,2,2,5,2,9,21,31,-119.662517,34.450151,2019,45410,1313,NA,NA,NA,NA,NA,NA,324,0,0,20,0,0,0,6,California,4,West,9,Pacific
125763,Whittier College,13406 E Philadelphia Street,Whittier,CA,90601,8,2,2,9,2,9,21,31,-118.032299,33.978773,2019,48924,1717,NA,NA,NA,NA,NA,NA,339,30,88,0,0,0,0,6,California,4,West,9,Pacific
125897,Woodbury University,7500 Glenoaks Blvd,Burbank,CA,91504-1052,8,2,2,7,2,19,19,22,-118.341147,34.208011,2019,39712,1031,NA,NA,NA,NA,NA,NA,273,99,0,0,0,0,0,6,California,4,West,9,Pacific
126076,Yeshiva Ohr Elchonon Chabad West Coast Talmudical Seminary,7215 Waring Ave,Los Angeles,CA,90046-7660,8,2,2,5,2,18,24,51,-118.346613,34.085465,2019,15000,206,NA,NA,NA,NA,NA,NA,35,0,0,0,0,0,0,6,California,4,West,9,Pacific
126119,Yuba College,2088 N Beale Rd,Marysville,CA,95901,8,4,1,3,2,1,1,40,-121.53964,39.126536,2019,1104,4219,1615372,2251394,9462726,249126,13848804,17163665,0,0,0,13,0,686,175,6,California,4,West,9,Pacific
126164,The Salon Professional Academy-Grand Junction,432 North Avenue,Grand Junction,CO,81501,7,6,3,4,2,-2,-2,-2,-108.56521,39.078114,2019,NA,98,NA,NA,NA,NA,NA,NA,0,0,0,40,0,0,0,8,Colorado,4,West,8,Mountain
126182,Adams State University,208 Edgemont Blvd,Alamosa,CO,81101,7,1,1,9,2,13,18,21,-105.879642,37.473636,2019,5736,1584,16382915,5499106,14145729,0,0,0,315,422,8,0,0,373,0,8,Colorado,4,West,8,Mountain
126207,Aims Community College,5401 W. 20th St.,Greeley,CO,80634,7,4,1,3,2,3,8,40,-104.763415,40.409559,2019,2544,3781,10018762,1093411,3221213,11543,9500829,54142130,0,0,0,86,0,560,970,8,Colorado,4,West,8,Mountain
126289,Arapahoe Community College,5900 S. Santa Fe Dr.,Littleton,CO,80160-9002,7,1,1,5,2,3,9,40,-105.018631,39.607505,2019,3574,5342,33818578,722839,3195638,1258,0,0,0,0,0,139,0,736,802,8,Colorado,4,West,8,Mountain
126359,Bel-Rea Institute of Animal Technology,1681 S Dayton St,Denver,CO,80247,7,6,3,3,2,4,10,40,-104.876207,39.686194,2019,12228,368,NA,NA,NA,NA,NA,NA,0,0,0,0,0,111,0,8,Colorado,4,West,8,Mountain
126562,University of Colorado Denver/Anschutz Medical Campus,"1380 Lawrence Street, Lawrence Street Center, Suite 1400",Denver,CO,80217-3364,7,1,1,9,2,14,16,16,-104.837722,39.745149,2019,7920,11862,269000652,334740951,123306499,623164,15651248,0,2392,2057,688,0,0,0,0,8,Colorado,4,West,8,Mountain
126580,University of Colorado Colorado Springs,1420 Austin Bluffs Parkway,Colorado Springs,CO,80918,7,1,1,9,2,13,18,21,-104.800296,38.892735,2019,9284,9598,115230549,6997868,17349321,0,0,0,1781,481,27,0,55,0,0,8,Colorado,4,West,8,Mountain
126605,Spartan College of Aeronautics and Technology,10851 W 120th Ave,Broomfield,CO,80021-3465,7,6,3,3,2,4,11,40,-105.119096,39.914822,2019,15430,987,NA,NA,NA,NA,NA,NA,0,0,0,17,0,134,0,8,Colorado,4,West,8,Mountain
126614,University of Colorado Boulder,Regent Drive at Broadway,Boulder,CO,80309-0017,7,1,1,9,2,11,15,15,-105.270823,40.008781,2019,10728,29331,667245779,390145475,53265548,2014089,0,0,5674,1463,594,0,0,0,0,8,Colorado,4,West,8,Mountain
